,stabilizer.roll,stabilizer.pitch,stabilizer.yaw,stateEstimate.x,stateEstimate.y,stateEstimate.z,time,stateEstimate.vx,stateEstimate.vy,stateEstimate.vz,stateEstimate.qx,stateEstimate.qy,stateEstimate.qz,stateEstimate.qw,controller.r_pitch,controller.r_roll,controller.r_yaw
0,-0.8688521981239319,0.08934593200683594,89.9085922241211,1.3609598875045776,0.36838841438293457,0.23458856344223022,20425,,,,,,,,,,
1,,,,,,,20426,-0.010314187966287136,-0.08781411498785019,0.0007469790289178491,,,,,,,
2,,,,,,,20428,,,,-0.004860238637775183,-0.0058835819363594055,0.7065157294273376,0.7076548337936401,,,
3,,,,,,,20430,,,,,,,,0.003008746774867177,-0.00038022693479433656,0.0004337370046414435
4,-0.8766177296638489,0.077858567237854,89.9096908569336,1.3601008653640747,0.3680415153503418,0.23371312022209167,20525,,,,,,,,,,
5,,,,,,,20526,-0.012373527511954308,-0.08728241175413132,0.0004173259949311614,,,,,,,
6,,,,,,,20528,,,,-0.005002815276384354,-0.005847332067787647,0.7065221667289734,0.7076477408409119,,,
7,,,,,,,20530,,,,,,,,-0.001652352511882782,0.0011837795609608293,-0.0013552658492699265
8,-0.8758740425109863,0.05611761286854744,89.90938568115234,1.359776258468628,0.36973118782043457,0.23147757351398468,20625,,,,,,,,,,
9,,,,,,,20626,-0.013472366146743298,-0.08339478075504303,-0.0020743990316987038,,,,,,,
10,,,,,,,20628,,,,-0.005152735393494368,-0.005697143729776144,0.7065210342407227,0.7076489329338074,,,
11,,,,,,,20630,,,,,,,,0.00011526644811965525,0.00038782108458690345,0.0016765585169196129
12,-0.8948524594306946,0.024301493540406227,89.91130828857422,1.3552134037017822,0.373363196849823,0.22908787429332733,20725,,,,,,,,,,
13,,,,,,,20726,-0.02114195190370083,-0.0780668705701828,-0.003787900786846876,,,,,,,
14,,,,,,,20728,,,,-0.005376214627176523,-0.005667571444064379,0.7065358757972717,0.7076327204704285,,,
15,,,,,,,20730,,,,,,,,0.0002468176244292408,0.0013481387868523598,0.00701963109895587
16,-0.8973286747932434,0.008736522868275642,89.79412841796875,1.355064034461975,0.37879759073257446,0.2259218990802765,20825,,,,,,,,,,
17,,,,,,,20826,-0.03453681245446205,-0.06293418258428574,-0.005940529052168131,,,,,,,
18,,,,,,,20828,,,,-0.005507238209247589,-0.005478058476001024,0.7054735422134399,0.7086923718452454,,,
19,,,,,,,20830,,,,,,,,-0.06491713970899582,-0.07055731862783432,-0.057017091661691666
20,0.1136757954955101,-0.08039164543151855,89.72765350341797,1.3519577980041504,0.3800549805164337,0.22463451325893402,20926,,,,,,,,,,
21,,,,,,,20926,-0.04518390819430351,-0.05408168211579323,0.03773656114935875,,,,,,,
22,,,,,,,20928,,,,0.0051615480333566666,0.005165460519492626,0.7057681083679199,0.7084038257598877,,,
23,,,,,,,20930,,,,,,,,0.16736534237861633,1.6459983587265015,0.14110152423381805
24,4.153144836425781,0.4537312090396881,90.5599365234375,1.3418502807617188,0.38648903369903564,0.21846866607666016,21025,,,,,,,,,,
25,,,,,,,21026,0.01389285083860159,-0.04471168294548988,0.14318998157978058,,,,,,,
26,,,,,,,21028,,,,0.027937034144997597,0.02024458721280098,0.7107095718383789,0.7026375532150269,,,
27,,,,,,,21030,,,,,,,,0.42498788237571716,-0.35490500926971436,0.1444145143032074
28,3.5822951793670654,2.16365909576416,91.14070892333984,1.3565038442611694,0.3612295687198639,0.2293282449245453,21125,,,,,,,,,,
29,,,,,,,21126,0.0866638571023941,-0.09307683259248734,0.2122255116701126,,,,,,,
30,,,,,,,21128,,,,0.035450469702482224,0.008149182423949242,0.7142839431762695,0.6989086866378784,,,
31,,,,,,,21130,,,,,,,,0.03198005259037018,-0.0873873382806778,0.06140616908669472
32,2.8543670177459717,1.4197365045547485,91.62810516357422,1.3816765546798706,0.344404399394989,0.24931079149246216,21225,,,,,,,,,,
33,,,,,,,21226,0.16630421578884125,-0.13409839570522308,0.24275687336921692,,,,,,,
34,,,,,,,21228,,,,0.025007376447319984,0.008417065255343914,0.7173604369163513,0.6962010264396667,,,
35,,,,,,,21230,,,,,,,,-0.013624666258692741,-0.3089408576488495,0.08142252266407013
36,0.8777108192443848,1.031292200088501,91.836669921875,1.4271128177642822,0.33150869607925415,0.29025840759277344,21325,,,,,,,,,,
37,,,,,,,21326,0.2296656370162964,-0.15241536498069763,0.2277035266160965,,,,,,,
38,,,,,,,21328,,,,0.008017705753445625,-0.0016780904261395335,0.7184649109840393,0.6955135464668274,,,
39,,,,,,,21330,,,,,,,,-0.3668450713157654,-0.6394464373588562,0.025746403262019157
40,-1.438704490661621,-0.441606342792511,91.97679138183594,1.4512722492218018,0.32169514894485474,0.29770150780677795,21425,,,,,,,,,,
41,,,,,,,21426,0.22386914491653442,-0.15175887942314148,0.18985047936439514,,,,,,,
42,,,,,,,21428,,,,-0.013151678256690502,-0.006808960810303688,0.7193377614021301,0.6945011019706726,,,
43,,,,,,,21430,,,,,,,,-0.14490823447704315,-0.3176114857196808,0.04781289026141167
44,-3.0762181282043457,-0.7039391398429871,92.19275665283203,1.4823670387268066,0.32550665736198425,0.3336784243583679,21525,,,,,,,,,,
45,,,,,,,21526,0.19758349657058716,-0.11962530016899109,0.18227370083332062,,,,,,,
46,,,,,,,21528,,,,-0.023959489539265633,-0.015408284030854702,0.7204299569129944,0.6929410696029663,,,
47,,,,,,,21530,,,,,,,,-0.08909811079502106,-0.15380370616912842,0.027281666174530983
48,-3.7415740489959717,-0.7947984337806702,92.34081268310547,1.5022859573364258,0.33057308197021484,0.36005929112434387,21625,,,,,,,,,,
49,,,,,,,21626,0.14254340529441833,-0.08736582100391388,0.17249695956707,,,,,,,
50,,,,,,,21628,,,,-0.027088603004813194,-0.019657399505376816,0.7212365865707397,0.6918782591819763,,,
51,,,,,,,21630,,,,,,,,0.24716897308826447,-0.053570251911878586,0.006292478181421757
52,-3.5186877250671387,-0.03939266875386238,92.39379119873047,1.5134251117706299,0.3389063775539398,0.38918012380599976,21725,,,,,,,,,,
53,,,,,,,21726,0.07221183180809021,-0.061692845076322556,0.1662284880876541,,,,,,,
54,,,,,,,21728,,,,-0.020660201087594032,-0.021561024710536003,0.7213837504386902,0.6918899416923523,,,
55,,,,,,,21730,,,,,,,,0.11818844825029373,0.15224260091781616,-0.01849750243127346
56,-2.5709962844848633,0.7591176629066467,92.38459777832031,1.5123944282531738,0.34751394391059875,0.41837507486343384,21825,,,,,,,,,,
57,,,,,,,21826,0.01910628378391266,-0.05187279358506203,0.18006083369255066,,,,,,,
58,,,,,,,21828,,,,-0.009690598584711552,-0.02063743956387043,0.7213866114616394,0.6921557188034058,,,
59,,,,,,,21830,,,,,,,,0.16423316299915314,0.17081643640995026,-0.014600961469113827
60,-1.5111579895019531,1.4124153852462769,92.25959014892578,1.525766372680664,0.35146141052246094,0.44155728816986084,21925,,,,,,,,,,
61,,,,,,,21926,-0.0008397705969400704,-0.06038961559534073,0.18407057225704193,,,,,,,
62,,,,,,,21928,,,,0.00028835254488512874,-0.017554841935634613,0.7206389904022217,0.6930867433547974,,,
63,,,,,,,21930,,,,,,,,0.041921235620975494,0.15583312511444092,-0.015148069709539413
64,-0.7749056816101074,1.6354987621307373,92.1485595703125,1.5560404062271118,0.3484571874141693,0.4605903625488281,22025,,,,,,,,,,
65,,,,,,,22026,0.01588781364262104,-0.08130794763565063,0.17592208087444305,,,,,,,
66,,,,,,,22028,,,,0.005738779902458191,-0.014848999679088593,0.7200430631637573,0.6937453746795654,,,
67,,,,,,,22030,,,,,,,,0.04849715158343315,0.007715716026723385,-0.018830586224794388
68,-0.8121480941772461,1.5516306161880493,92.08463287353516,1.583129644393921,0.34598565101623535,0.4783567190170288,22125,,,,,,,,,,
69,,,,,,,22126,0.03285232558846474,-0.10193375498056412,0.16458049416542053,,,,,,,
70,,,,,,,22128,,,,0.0044731562957167625,-0.014541246928274632,0.7196910381317139,0.694126307964325,,,
71,,,,,,,22130,,,,,,,,-0.00951827596873045,-0.04164322093129158,-0.011258263140916824
72,-1.4161101579666138,1.254335880279541,92.03863525390625,1.6034270524978638,0.34712961316108704,0.49599042534828186,22225,,,,,,,,,,
73,,,,,,,22226,0.03603602945804596,-0.11285918205976486,0.1679404377937317,,,,,,,
74,,,,,,,22228,,,,-0.0013691222993656993,-0.016646888107061386,0.7193278074264526,0.6944685578346252,,,
75,,,,,,,22230,,,,,,,,-0.04751847684383392,-0.08718565106391907,-0.014012651517987251
76,-2.0037176609039307,0.8907204270362854,92.00360870361328,1.6144355535507202,0.3477104902267456,0.5120973587036133,22325,,,,,,,,,,
77,,,,,,,22326,0.01779509335756302,-0.11773370206356049,0.16431984305381775,,,,,,,
78,,,,,,,22328,,,,-0.007011632900685072,-0.01836506836116314,0.7190821170806885,0.6946455836296082,,,
79,,,,,,,22330,,,,,,,,-0.009672860614955425,-0.0894831195473671,-0.023864757269620895
80,-2.3570871353149414,0.5910652279853821,91.9103775024414,1.613288402557373,0.3396521508693695,0.5261396169662476,22425,,,,,,,,,,
81,,,,,,,22426,-0.0202599186450243,-0.12699198722839355,0.15733511745929718,,,,,,,
82,,,,,,,22428,,,,-0.010823359712958336,-0.018413133919239044,0.7185049057006836,0.6951923966407776,,,
83,,,,,,,22430,,,,,,,,-0.05376247689127922,-0.03967731446027756,-0.007139705121517181
84,-1.9793058633804321,0.28591710329055786,91.84159851074219,1.6017470359802246,0.33196336030960083,0.5401909351348877,22525,,,,,,,,,,
85,,,,,,,22526,-0.06707664579153061,-0.1296018809080124,0.13547322154045105,,,,,,,
86,,,,,,,22528,,,,-0.010000433772802353,-0.013325302861630917,0.7182030081748962,0.6956326961517334,,,
87,,,,,,,22530,,,,,,,,-0.05980425700545311,0.1309574693441391,-0.007783074863255024
88,-1.1583597660064697,0.06971302628517151,91.7855453491211,1.577683448791504,0.31584304571151733,0.547622799873352,22625,,,,,,,,,,
89,,,,,,,22626,-0.11310193687677383,-0.13720819354057312,0.11984714865684509,,,,,,,
90,,,,,,,22628,,,,-0.0066755348816514015,-0.0076392344199121,0.7179942727088928,0.6959736347198486,,,
91,,,,,,,22630,,,,,,,,-0.030163245275616646,0.2467881143093109,-0.013023820705711842
92,0.08481984585523605,-0.21806056797504425,91.71728515625,1.5513488054275513,0.3075006306171417,0.5575108528137207,22725,,,,,,,,,,
93,,,,,,,22726,-0.13890394568443298,-0.12993359565734863,0.12294810265302658,,,,,,,
94,,,,,,,22728,,,,-0.0009461930603720248,0.001909932354465127,0.7176156640052795,0.6964346766471863,,,
95,,,,,,,22730,,,,,,,,-0.0872848629951477,0.24899661540985107,-0.0011336583411321044
96,1.3147056102752686,-0.4753459095954895,91.67242431640625,1.5279937982559204,0.301769495010376,0.5643609166145325,22825,,,,,,,,,,
97,,,,,,,22826,-0.13813310861587524,-0.11477365344762802,0.13211137056350708,,,,,,,
98,,,,,,,22828,,,,0.004946285393089056,0.011159731075167656,0.7172589302062988,0.6966984272003174,,,
99,,,,,,,22830,,,,,,,,0.02083786576986313,0.21195626258850098,-0.008367307484149933
100,2.189211368560791,-0.3859616219997406,91.64488220214844,1.511534571647644,0.2976401150226593,0.5711517333984375,22925,,,,,,,,,,
101,,,,,,,22926,-0.11211328208446503,-0.09811734408140182,0.13717129826545715,,,,,,,
102,,,,,,,22928,,,,0.010827911086380482,0.016086047515273094,0.7169976234436035,0.6968044638633728,,,
103,,,,,,,22930,,,,,,,,0.020696425810456276,0.07326275110244751,-0.0060972413048148155
104,2.3711955547332764,-0.18649600446224213,91.60767364501953,1.5014280080795288,0.2918625473976135,0.5771450400352478,23025,,,,,,,,,,
105,,,,,,,23026,-0.07324326038360596,-0.0879373848438263,0.13103272020816803,,,,,,,
106,,,,,,,23028,,,,0.013207372277975082,0.015996703878045082,0.716774582862854,0.6969949007034302,,,
107,,,,,,,23030,,,,,,,,0.07657521218061447,-0.02944602444767952,0.006034808699041605
108,2.065934658050537,-0.00327306124381721,91.61231994628906,1.494194507598877,0.2849505543708801,0.5842187404632568,23125,,,,,,,,,,
109,,,,,,,23126,-0.0364871472120285,-0.08365952968597412,0.12627339363098145,,,,,,,
110,,,,,,,23128,,,,0.01245975587517023,0.012993833981454372,0.7168610692024231,0.696982204914093,,,
111,,,,,,,23130,,,,,,,,0.023809105157852173,-0.0995660275220871,-0.01588156446814537
112,1.465393304824829,0.0703577995300293,91.56702423095703,1.4859473705291748,0.2843792736530304,0.5856764316558838,23225,,,,,,,,,,
113,,,,,,,23226,-0.0126218656077981,-0.07439406216144562,0.12403441220521927,,,,,,,
114,,,,,,,23228,,,,0.009275779128074646,0.008782402612268925,0.7166498303413391,0.6973146796226501,,,
115,,,,,,,23230,,,,,,,,0.04156458005309105,-0.07049690932035446,-0.011127165518701077
116,0.8794808387756348,0.15584854781627655,91.49813079833984,1.4839695692062378,0.28052228689193726,0.5932959318161011,23325,,,,,,,,,,
117,,,,,,,23326,0.006467829458415508,-0.07217290252447128,0.1299149990081787,,,,,,,
118,,,,,,,23328,,,,0.006263419985771179,0.004585420712828636,0.716270923614502,0.6977776885032654,,,
119,,,,,,,23330,,,,,,,,0.060779083520174026,-0.08768842369318008,-0.019912108778953552
120,0.5688592195510864,0.33539900183677673,91.4264907836914,1.4813644886016846,0.2773483693599701,0.6021237969398499,23425,,,,,,,,,,
121,,,,,,,23426,0.014078505337238312,-0.07135193794965744,0.1318603754043579,,,,,,,
122,,,,,,,23428,,,,0.005473374389111996,0.0015594265423715115,0.7158466577529907,0.698232889175415,,,
123,,,,,,,23430,,,,,,,,-0.02294299192726612,-0.0853140652179718,-0.024686608463525772
124,0.2344820350408554,0.2300243228673935,91.26451110839844,1.474869966506958,0.27934399247169495,0.6141090989112854,23525,,,,,,,,,,
125,,,,,,,23526,0.011337926611304283,-0.06458649784326553,0.14550215005874634,,,,,,,
126,,,,,,,23528,,,,0.002789468504488468,0.0001022271389956586,0.7148617506027222,0.6992587447166443,,,
127,,,,,,,23530,,,,,,,,0.04363835230469704,0.007183510810136795,-0.02536684460937977
128,0.1480775624513626,0.3501197099685669,91.10343933105469,1.471121072769165,0.2858694791793823,0.627345621585846,23625,,,,,,,,,,
129,,,,,,,23626,0.010183263570070267,-0.054214444011449814,0.14813604950904846,,,,,,,
130,,,,,,,23628,,,,0.003009758424013853,-0.0011739431647583842,0.7138776779174805,0.7002615332603455,,,
131,,,,,,,23630,,,,,,,,0.00030888975015841424,-0.045758482068777084,-0.027808336541056633
132,0.21887677907943726,0.5565276145935059,90.91516876220703,1.4661281108856201,0.29534396529197693,0.6419233083724976,23725,,,,,,,,,,
133,,,,,,,23726,0.005727225914597511,-0.04344801977276802,0.15425512194633484,,,,,,,
134,,,,,,,23728,,,,0.004747454542666674,-0.0020148400217294693,0.7127255797386169,0.7014226317405701,,,
135,,,,,,,23730,,,,,,,,0.023760557174682617,0.037983424961566925,-0.020899489521980286
136,0.33178624510765076,0.810655951499939,90.75386047363281,1.4585068225860596,0.305027574300766,0.6611631512641907,23825,,,,,,,,,,
137,,,,,,,23826,0.0012040556175634265,-0.03700974956154823,0.15179839730262756,,,,,,,
138,,,,,,,23828,,,,0.0069982800632715225,-0.0028685845900326967,0.7117341160774231,0.7024068236351013,,,
139,,,,,,,23830,,,,,,,,0.04129667207598686,0.027417561039328575,-0.013662568293511868
140,0.5617651343345642,1.0518547296524048,90.64752197265625,1.451120138168335,0.31324562430381775,0.676007866859436,23925,,,,,,,,,,
141,,,,,,,23926,0.0004981000674888492,-0.03763863444328308,0.15043757855892181,,,,,,,
142,,,,,,,23928,,,,0.009906334802508354,-0.002929753391072154,0.7110819816589355,0.7030317783355713,,,
143,,,,,,,23930,,,,,,,,0.012271551415324211,0.020139411091804504,-0.02044234797358513
144,0.8142000436782837,1.3193516731262207,90.53934478759766,1.4437766075134277,0.31579869985580444,0.6895447969436646,24025,,,,,,,,,,
145,,,,,,,24026,0.0023774253204464912,-0.04831966012716293,0.13733360171318054,,,,,,,
146,,,,,,,24028,,,,0.013111397624015808,-0.0030167812947183847,0.7104177474975586,0.7036502957344055,,,
147,,,,,,,24030,,,,,,,,0.04793664813041687,0.06226254627108574,-0.012148365378379822
148,0.941501796245575,1.3147557973861694,90.4624252319336,1.4357062578201294,0.31215545535087585,0.700949490070343,24125,,,,,,,,,,
149,,,,,,,24126,0.008834238164126873,-0.06903235614299774,0.12413548678159714,,,,,,,
150,,,,,,,24128,,,,0.013930908404290676,-0.0022470373660326004,0.7099495530128479,0.7041097283363342,,,
151,,,,,,,24130,,,,,,,,-0.04184645041823387,0.022195566445589066,-0.013978985138237476
152,1.0737876892089844,1.1291835308074951,90.39291381835938,1.4312773942947388,0.30237001180648804,0.7111960053443909,24225,,,,,,,,,,
153,,,,,,,24226,0.020118799060583115,-0.09259416162967682,0.11506731808185577,,,,,,,
154,,,,,,,24228,,,,0.0135940657928586,-0.0002952337672468275,0.7095259428024292,0.7045466899871826,,,
155,,,,,,,24230,,,,,,,,-0.08035992830991745,-0.02732786536216736,-0.01530238427221775
156,0.8835236430168152,0.6440984606742859,90.34844207763672,1.43095862865448,0.2934662997722626,0.7178794145584106,24325,,,,,,,,,,
157,,,,,,,24326,0.03373388946056366,-0.10722984373569489,0.11094921827316284,,,,,,,
158,,,,,,,24328,,,,0.009421637281775475,0.001506060129031539,0.7092512249946594,0.7048898339271545,,,
159,,,,,,,24330,,,,,,,,-0.1134520024061203,0.029970545321702957,-0.010998394340276718
160,0.7329758405685425,0.12000574916601181,90.30968475341797,1.430953860282898,0.2839081585407257,0.7255731225013733,24425,,,,,,,,,,
161,,,,,,,24426,0.04447638988494873,-0.11171724647283554,0.10104948282241821,,,,,,,
162,,,,,,,24428,,,,0.0052531748078763485,0.0037966242525726557,0.7090043425559998,0.7051729559898376,,,
163,,,,,,,24430,,,,,,,,-0.09365373849868774,-0.04679390788078308,-0.0047867619432508945
164,0.5953487157821655,-0.23347434401512146,90.30436706542969,1.4329638481140137,0.27592048048973083,0.733846127986908,24525,,,,,,,,,,
165,,,,,,,24526,0.05260859802365303,-0.10695528239011765,0.10910056531429291,,,,,,,
166,,,,,,,24528,,,,0.0021654744632542133,0.0051509239710867405,0.7089622616767883,0.7052228450775146,,,
167,,,,,,,24530,,,,,,,,-0.08048567920923233,-0.03666428476572037,0.01770826056599617
168,0.3720901608467102,-0.534415066242218,90.36368560791016,1.4322806596755981,0.26374751329421997,0.7417626976966858,24625,,,,,,,,,,
169,,,,,,,24626,0.0538434274494648,-0.10217974334955215,0.10734390467405319,,,,,,,
170,,,,,,,24628,,,,-0.0010809932136908174,0.00562540115788579,0.7093235850334167,0.7048583626747131,,,
171,,,,,,,24630,,,,,,,,0.004675081931054592,0.03477998450398445,0.00017786372336558998
172,0.33061403036117554,-0.7407957315444946,90.36305236816406,1.4328105449676514,0.25358739495277405,0.7509177923202515,24725,,,,,,,,,,
173,,,,,,,24726,0.05541064217686653,-0.09197987616062164,0.10362154245376587,,,,,,,
174,,,,,,,24728,,,,-0.0026204504538327456,0.0066418638452887535,0.7093108892440796,0.7048582434654236,,,
175,,,,,,,24730,,,,,,,,0.013779743574559689,0.007992764934897423,-0.003871409222483635
176,0.258434534072876,-0.7561057209968567,90.32308197021484,1.4306466579437256,0.2476976364850998,0.7544023394584656,24825,,,,,,,,,,
177,,,,,,,24826,0.05147509649395943,-0.07599042356014252,0.1120915487408638,,,,,,,
178,,,,,,,24828,,,,-0.0031508333049714565,0.006286119110882282,0.7090683579444885,0.7051032185554504,,,
179,,,,,,,24830,,,,,,,,-0.003647400066256523,0.009914662688970566,-0.00509676244109869
180,0.2625359296798706,-0.6942001581192017,90.23770904541016,1.4323230981826782,0.2445557862520218,0.7616638541221619,24925,,,,,,,,,,
181,,,,,,,24926,0.05179006606340408,-0.059267256408929825,0.09895700216293335,,,,,,,
182,,,,,,,24928,,,,-0.0027470034547150135,0.005937634967267513,0.7085459232330322,0.7056329846382141,,,
183,,,,,,,24930,,,,,,,,-0.008260185830295086,0.010745570063591003,0.0003480190644040704
184,0.27496156096458435,-0.4266306161880493,90.19235229492188,1.4359220266342163,0.2400442510843277,0.7694923281669617,25025,,,,,,,,,,
185,,,,,,,25026,0.055012837052345276,-0.047751978039741516,0.09847802668809891,,,,,,,
186,,,,,,,25028,,,,-0.0009947740472853184,0.004356427118182182,0.7082784175872803,0.7059177160263062,,,
187,,,,,,,25030,,,,,,,,0.011967500671744347,0.04306967183947563,0.0018035602988675237
188,0.14339859783649445,-0.33158326148986816,90.15264892578125,1.431992769241333,0.23955194652080536,0.7700865268707275,25125,,,,,,,,,,
189,,,,,,,25126,0.04898860678076744,-0.03699764236807823,0.09228590875864029,,,,,,,
190,,,,,,,25128,,,,-0.0012274374021217227,0.002963649807497859,0.7080409526824951,0.7061627507209778,,,
191,,,,,,,25130,,,,,,,,0.010775221511721611,0.026619616895914078,-0.015125594101846218
192,0.24928022921085358,-0.12694941461086273,90.07649230957031,1.437373161315918,0.24144640564918518,0.7747089862823486,25225,,,,,,,,,,
193,,,,,,,25226,0.05302245169878006,-0.026484664529561996,0.08909691870212555,,,,,,,
194,,,,,,,25228,,,,0.0006814425578340888,0.002361750928685069,0.7075738906860352,0.7066336870193481,,,
195,,,,,,,25231,,,,,,,,0.021377839148044586,0.02502583898603916,-0.019183844327926636
196,0.21501952409744263,0.09825354814529419,90.02449798583984,1.447266697883606,0.2458215206861496,0.7812118530273438,25325,,,,,,,,,,
197,,,,,,,25326,0.061926405876874924,-0.017684508115053177,0.08703494071960449,,,,,,,
198,,,,,,,25328,,,,0.0018692170269787312,0.0007561207166872919,0.7072569727897644,0.7069523334503174,,,
199,,,,,,,25331,,,,,,,,0.11876840889453888,-0.008387690410017967,0.00699060270562768
200,-0.007980672642588615,0.43958455324172974,90.04780578613281,1.4597399234771729,0.2510562837123871,0.7901053428649902,25425,,,,,,,,,,
201,,,,,,,25426,0.07141214609146118,-0.014165940694510937,0.10042698681354523,,,,,,,
202,,,,,,,25428,,,,0.0026083397679030895,-0.0027299467474222183,0.7073960304260254,0.7068058848381042,,,
203,,,,,,,25431,,,,,,,,0.06000553444027901,-0.10808192193508148,0.00254761497490108
204,-0.3934890925884247,0.7198178768157959,90.10900115966797,1.4758814573287964,0.2562267780303955,0.7981152534484863,25525,,,,,,,,,,
205,,,,,,,25526,0.07707256823778152,-0.01561665441840887,0.10132087767124176,,,,,,,
206,,,,,,,25528,,,,0.0020202058367431164,-0.006867826450616121,0.7077450156211853,0.7064302563667297,,,
207,,,,,,,25530,,,,,,,,0.0327969565987587,-0.11894453316926956,0.008657186292111874
208,-0.858314037322998,0.7923567295074463,90.12940216064453,1.491578459739685,0.2646755576133728,0.8057671189308167,25625,,,,,,,,,,
209,,,,,,,25626,0.07542101293802261,-0.016095498576760292,0.08475563675165176,,,,,,,
210,,,,,,,25628,,,,-0.0003954874409828335,-0.01018584705889225,0.7078307867050171,0.706307053565979,,,
211,,,,,,,25630,,,,,,,,-0.3084675967693329,0.2046150267124176,-0.023757176473736763
212,3.9775774478912354,-6.818155288696289,90.28164672851562,1.490048885345459,0.278896301984787,0.7873601913452148,25725,,,,,,,,,,
213,,,,,,,25726,0.08019223809242249,0.03287940099835396,0.06171071529388428,,,,,,,
214,,,,,,,25728,,,,-0.017689982429146767,0.06647515296936035,0.7057057023048401,0.7051564455032349,,,
215,,,,,,,25730,,,,,,,,-0.8306025266647339,0.506524920463562,-0.019213417544960976
216,4.063309192657471,-6.403934478759766,90.22434997558594,1.486321210861206,0.3095158040523529,0.7570355534553528,25825,,,,,,,,,,
217,,,,,,,25826,0.13697384297847748,0.1801840364933014,0.026269953697919846,,,,,,,
218,,,,,,,25828,,,,-0.014568543992936611,0.06447175145149231,0.7055409550666809,0.7055785655975342,,,
219,,,,,,,25830,,,,,,,,-0.03514451906085014,0.19558130204677582,0.014182702638208866
220,4.675778865814209,-6.175934314727783,90.355712890625,1.490374207496643,0.3482381999492645,0.7288243174552917,25925,,,,,,,,,,
221,,,,,,,25926,0.20162522792816162,0.3118985593318939,0.016730213537812233,,,,,,,
222,,,,,,,25928,,,,-0.009464283473789692,0.0668332651257515,0.706129252910614,0.7048568725585938,,,
223,,,,,,,25930,,,,,,,,0.6276267170906067,-0.24564427137374878,0.03673895448446274
224,3.470573663711548,-2.507706642150879,90.29466247558594,1.5059047937393188,0.3968528211116791,0.7049088478088379,26025,,,,,,,,,,
225,,,,,,,26026,0.265531450510025,0.4052685499191284,0.046794287860393524,,,,,,,
226,,,,,,,26028,,,,0.00584659306332469,0.03688842058181763,0.7079598903656006,0.7052629590034485,,,
227,,,,,,,26030,,,,,,,,0.38264214992523193,-0.17230850458145142,0.02205086685717106
228,2.3071634769439697,0.3147217035293579,90.29524993896484,1.5532253980636597,0.4337978661060333,0.7129935622215271,26125,,,,,,,,,,
229,,,,,,,26126,0.3390747606754303,0.4235314726829529,0.09590155631303787,,,,,,,
230,,,,,,,26128,,,,0.01614563725888729,0.012335708364844322,0.708818256855011,0.7050970196723938,,,
231,,,,,,,26130,,,,,,,,0.4516308605670929,-0.27432772517204285,0.01839408650994301
232,0.3818078637123108,2.629560708999634,90.26394653320312,1.6134932041168213,0.4617737829685211,0.733234167098999,26225,,,,,,,,,,
233,,,,,,,26226,0.39335140585899353,0.38250309228897095,0.1432412564754486,,,,,,,
234,,,,,,,26228,,,,0.018611937761306763,-0.013826439157128334,0.7085963487625122,0.7052316069602966,,,
235,,,,,,,26230,,,,,,,,0.2395564615726471,-0.36996230483055115,-0.009185947477817535
236,-1.8460384607315063,3.5152652263641357,90.21060943603516,1.6780332326889038,0.4799005389213562,0.7488825917243958,26325,,,,,,,,,,
237,,,,,,,26326,0.4107099771499634,0.306957870721817,0.15993575751781464,,,,,,,
238,,,,,,,26328,,,,0.010360682383179665,-0.03305179625749588,0.7076306343078613,0.7057316899299622,,,
239,,,,,,,26330,,,,,,,,0.0006762187113054097,-0.2951855957508087,-0.0063928538002073765
240,-3.9852042198181152,3.215867280960083,90.08024597167969,1.7425432205200195,0.4984029531478882,0.7593597769737244,26425,,,,,,,,,,
241,,,,,,,26426,0.3924230933189392,0.23769588768482208,0.14422152936458588,,,,,,,
242,,,,,,,26428,,,,-0.004716144874691963,-0.04440951347351074,0.7062053680419922,0.7065957188606262,,,
243,,,,,,,26430,,,,,,,,-0.17619839310646057,-0.2810457646846771,7.608858868479729e-05
244,-4.688090801239014,1.0969940423965454,89.884765625,1.7940853834152222,0.5102996230125427,0.7647424340248108,26525,,,,,,,,,,
245,,,,,,,26526,0.33561962842941284,0.1851205974817276,0.12621738016605377,,,,,,,
246,,,,,,,26528,,,,-0.022191686555743217,-0.03566037490963936,0.7054941058158875,0.7074686884880066,,,
247,,,,,,,26530,,,,,,,,-0.38871556520462036,-0.10606991499662399,0.0017563042929396033
248,-5.203976154327393,-0.17668452858924866,89.79759979248047,1.8301448822021484,0.5195055603981018,0.7666901350021362,26625,,,,,,,,,,
249,,,,,,,26626,0.2589162588119507,0.1675669401884079,0.10288089513778687,,,,,,,
250,,,,,,,26628,,,,-0.03326962888240814,-0.0309990756213665,0.705177366733551,0.7075698971748352,,,
251,,,,,,,26631,,,,,,,,-0.24421003460884094,0.10133980214595795,0.009672918356955051
252,-4.840337753295898,-1.1305285692214966,89.79275512695312,1.8486354351043701,0.5204808115959167,0.7602117657661438,26725,,,,,,,,,,
253,,,,,,,26726,0.1707211434841156,0.16063842177391052,0.08440801501274109,,,,,,,
254,,,,,,,26728,,,,-0.03690047189593315,-0.02287953533232212,0.7054563760757446,0.707420825958252,,,
255,,,,,,,26730,,,,,,,,-0.1002768874168396,0.12153927981853485,0.01839762181043625
256,-3.6982741355895996,-1.6278778314590454,89.82061767578125,1.8580117225646973,0.5325832366943359,0.7574577927589417,26825,,,,,,,,,,
257,,,,,,,26826,0.09111356735229492,0.17880266904830933,0.07967530936002731,,,,,,,
258,,,,,,,26828,,,,-0.032909244298934937,-0.01278905849903822,0.7058822512626648,0.7074472904205322,,,
259,,,,,,,26830,,,,,,,,-0.013471742160618305,0.19690397381782532,0.005663233809173107
260,-1.3161996603012085,-2.910792112350464,89.77434539794922,1.8494755029678345,0.5458215475082397,0.7513713836669922,26925,,,,,,,,,,
261,,,,,,,26926,0.02646699734032154,0.20574931800365448,0.0826309397816658,,,,,,,
262,,,,,,,26928,,,,-0.026101786643266678,0.009807637892663479,0.7056427597999573,0.7080174684524536,,,
263,,,,,,,26930,,,,,,,,-0.24399083852767944,0.4412554204463959,0.021033799275755882
264,0.5084308385848999,-2.538137435913086,89.79454803466797,1.832943320274353,0.5617450475692749,0.7500590085983276,27025,,,,,,,,,,
265,,,,,,,27026,0.00012816637172363698,0.24867676198482513,0.09466391801834106,,,,,,,
266,,,,,,,27028,,,,-0.012524758465588093,0.018752366304397583,0.7055863738059998,0.708263635635376,,,
267,,,,,,,27030,,,,,,,,0.03151119872927666,0.2811923921108246,0.010610011406242847
268,2.088555097579956,-1.9431071281433105,89.8319320678711,1.8165717124938965,0.5858286619186401,0.7486431002616882,27125,,,,,,,,,,
269,,,,,,,27126,0.003701392561197281,0.2879304885864258,0.11036638915538788,,,,,,,
270,,,,,,,27128,,,,0.0008921148255467415,0.02478780224919319,0.7056302428245544,0.7081446051597595,,,
271,,,,,,,27130,,,,,,,,0.24215269088745117,0.17279954254627228,-0.009350375272333622
272,3.384260416030884,-2.0751476287841797,89.8245620727539,1.8102010488510132,0.6127448678016663,0.7653329372406006,27225,,,,,,,,,,
273,,,,,,,27226,0.03897752985358238,0.3137594759464264,0.13084273040294647,,,,,,,
274,,,,,,,27228,,,,0.00808548741042614,0.03357302024960518,0.7052212357521057,0.7081443667411804,,,
275,,,,,,,27230,,,,,,,,-0.10498329997062683,0.2786896824836731,0.006546844262629747
276,3.9362545013427734,-0.8976802825927734,89.73914337158203,1.8095701932907104,0.6420145034790039,0.7901389002799988,27325,,,,,,,,,,
277,,,,,,,27326,0.09695318341255188,0.3400128185749054,0.14592672884464264,,,,,,,
278,,,,,,,27328,,,,0.01877252385020256,0.02968689426779747,0.7048676013946533,0.7084673047065735,,,
279,,,,,,,27330,,,,,,,,0.09903597831726074,-0.07322519272565842,-0.004418365657329559
280,3.394035816192627,-0.5102699398994446,89.69759368896484,1.819700002670288,0.6673818826675415,0.821075975894928,27425,,,,,,,,,,
281,,,,,,,27426,0.15712665021419525,0.3424593210220337,0.1543106883764267,,,,,,,
282,,,,,,,27428,,,,0.017811749130487442,0.023946447297930717,0.704829216003418,0.7087475657463074,,,
283,,,,,,,27430,,,,,,,,0.24959520995616913,-0.1370473951101303,-0.003923913463950157
284,2.2502543926239014,0.6936512589454651,89.60429382324219,1.8386672735214233,0.6933557391166687,0.8524887561798096,27525,,,,,,,,,,
285,,,,,,,27526,0.2080831229686737,0.33001387119293213,0.15511628985404968,,,,,,,
286,,,,,,,27528,,,,0.018152322620153427,0.009448079392313957,0.7045960426330566,0.7093120813369751,,,
287,,,,,,,27530,,,,,,,,-0.026802945882081985,-0.2626795172691345,-0.014218336902558804
288,1.6478925943374634,0.08065319806337357,89.63921356201172,1.8570988178253174,0.718126654624939,0.8778252005577087,27625,,,,,,,,,,
289,,,,,,,27626,0.23397204279899597,0.31317439675331116,0.13451257348060608,,,,,,,
290,,,,,,,27628,,,,0.010648122057318687,0.009535123594105244,0.7048097848892212,0.7092509865760803,,,
291,,,,,,,27630,,,,,,,,-0.0752597227692604,-0.025892792269587517,0.01489136554300785
292,0.4204435646533966,-0.12266702950000763,89.70050811767578,1.877026915550232,0.7406768202781677,0.8967368006706238,27725,,,,,,,,,,
293,,,,,,,27726,0.2499433308839798,0.30370259284973145,0.10516396909952164,,,,,,,
294,,,,,,,27728,,,,0.0018025075551122427,0.003253964940086007,0.7052454352378845,0.7089520692825317,,,
295,,,,,,,27730,,,,,,,,0.011594258248806,-0.19732169806957245,0.025169486179947853
296,-0.4453945755958557,0.2567385137081146,89.80574798583984,1.898694634437561,0.7658450603485107,0.9112800359725952,27825,,,,,,,,,,
297,,,,,,,27826,0.24811223149299622,0.29754146933555603,0.08858766406774521,,,,,,,
298,,,,,,,27828,,,,-0.001210407237522304,-0.0044133709743618965,0.7058897018432617,0.7083055973052979,,,
299,,,,,,,27830,,,,,,,,0.05532100796699524,-0.3236275613307953,0.025760527700185776
300,-1.3692948818206787,0.6006187796592712,89.90569305419922,1.9168369770050049,0.7877556085586548,0.9200678467750549,27925,,,,,,,,,,
301,,,,,,,27926,0.22513310611248016,0.2820746600627899,0.06331214308738708,,,,,,,
302,,,,,,,27928,,,,-0.004792341496795416,-0.012234685011208057,0.706414520740509,0.7076749801635742,,,
303,,,,,,,27930,,,,,,,,0.02802514284849167,-0.07691066712141037,0.011256348341703415
304,-1.3750975131988525,0.17083342373371124,89.95055389404297,1.930838704109192,0.8090872764587402,0.9252728223800659,28025,,,,,,,,,,
305,,,,,,,28026,0.19239117205142975,0.2652972340583801,0.039684463292360306,,,,,,,
306,,,,,,,28028,,,,-0.007469285279512405,-0.009609323926270008,0.7067316770553589,0.7073756456375122,,,
307,,,,,,,28030,,,,,,,,-0.2813330590724945,0.17977195978164673,-0.013342197053134441
308,-0.8864845633506775,-0.5869770646095276,89.88825225830078,1.943178653717041,0.8302825093269348,0.9238417148590088,28125,,,,,,,,,,
309,,,,,,,28126,0.16857153177261353,0.265674352645874,0.019121922552585602,,,,,,,
310,,,,,,,28128,,,,-0.009128490462899208,-0.0019143418176099658,0.7064086198806763,0.7077414393424988,,,
311,,,,,,,28130,,,,,,,,0.08504579961299896,0.09961353987455368,-0.011789234355092049
312,-0.2744239270687103,-0.7828574776649475,89.75614929199219,1.9534350633621216,0.8538176417350769,0.922372579574585,28225,,,,,,,,,,
313,,,,,,,28226,0.15198592841625214,0.27186790108680725,0.026850320398807526,,,,,,,
314,,,,,,,28228,,,,-0.006559985689818859,0.0030579317826777697,0.7055864334106445,0.7085855007171631,,,
315,,,,,,,28230,,,,,,,,0.04808611050248146,0.0803099274635315,-0.0377594493329525
316,0.42015302181243896,-0.9554282426834106,89.59979248046875,1.9586268663406372,0.8789780139923096,0.9240444898605347,28325,,,,,,,,,,
317,,,,,,,28326,0.14051491022109985,0.28101611137390137,0.02786434255540371,,,,,,,
318,,,,,,,28328,,,,-0.0033105099573731422,0.008416890166699886,0.7045759558677673,0.70956951379776,,,
319,,,,,,,28330,,,,,,,,-0.15342570841312408,0.2294427454471588,-0.031479883939027786
320,0.8408912420272827,-0.9279696345329285,89.48693084716797,1.9664690494537354,0.9082508087158203,0.9246750473976135,28425,,,,,,,,,,
321,,,,,,,28426,0.14650186896324158,0.30085915327072144,0.023118190467357635,,,,,,,
322,,,,,,,28428,,,,-0.0005225323839113116,0.01083984412252903,0.7038442492485046,0.7102700471878052,,,
323,,,,,,,28430,,,,,,,,0.22844310104846954,0.0713656097650528,-0.004715743940323591
324,1.1338505744934082,-0.6397714614868164,89.42793273925781,1.9731316566467285,0.9372546076774597,0.9216681718826294,28525,,,,,,,,,,
325,,,,,,,28526,0.15640825033187866,0.30863481760025024,0.024710901081562042,,,,,,,
326,,,,,,,28528,,,,0.0031033761333674192,0.010928642004728317,0.7034826278686523,0.7106202840805054,,,
327,,,,,,,28530,,,,,,,,-0.04607574641704559,-0.03950370475649834,-0.006456668488681316
328,0.917141318321228,0.4464842677116394,89.40327453613281,1.9862407445907593,0.9635138511657715,0.9192285537719727,28625,,,,,,,,,,
329,,,,,,,28626,0.1714116781949997,0.3091718554496765,0.03485618904232979,,,,,,,
330,,,,,,,28628,,,,0.00842929258942604,0.0028603977989405394,0.7034086585044861,0.7107285261154175,,,
331,,,,,,,28630,,,,,,,,0.26513123512268066,-0.09874730557203293,-0.013832361437380314
332,0.6208106279373169,0.26158857345581055,89.38703918457031,1.9956552982330322,0.9934446811676025,0.922596275806427,28725,,,,,,,,,,
333,,,,,,,28726,0.17459873855113983,0.2976742088794708,0.035919614136219025,,,,,,,
334,,,,,,,28728,,,,0.005456718150526285,0.0021874750964343548,0.7033102512359619,0.7108573317527771,,,
335,,,,,,,28730,,,,,,,,-0.1918436735868454,0.08695875108242035,-0.01387303788214922
336,0.5292169451713562,0.44570910930633545,89.37653350830078,2.0050954818725586,1.0283448696136475,0.9247598648071289,28825,,,,,,,,,,
337,,,,,,,28826,0.17779116332530975,0.30121761560440063,0.03349362686276436,,,,,,,
338,,,,,,,28828,,,,0.006018589250743389,0.0004825545765925199,0.7032483816146851,0.7109171748161316,,,
339,,,,,,,28830,,,,,,,,0.13067151606082916,-0.0847950130701065,0.010354998521506786
340,0.3671584725379944,0.7253737449645996,89.3521499633789,2.0181920528411865,1.0638524293899536,0.9282795786857605,28925,,,,,,,,,,
341,,,,,,,28926,0.17994491755962372,0.29776039719581604,0.04358311742544174,,,,,,,
342,,,,,,,28928,,,,0.006693597882986069,-0.0023344308137893677,0.7030900716781616,0.7110641002655029,,,
343,,,,,,,28930,,,,,,,,0.08111152052879333,-0.04959894344210625,0.01876167021691799
344,0.1827012300491333,1.0360472202301025,89.4677734375,2.0303797721862793,1.0957093238830566,0.9315149188041687,29025,,,,,,,,,,
345,,,,,,,29026,0.17755325138568878,0.28440219163894653,0.03599724546074867,,,,,,,
346,,,,,,,29028,,,,0.0074958219192922115,-0.005300547461956739,0.7037948966026306,0.7103424668312073,,,
347,,,,,,,29030,,,,,,,,-0.21722954511642456,0.009463039226830006,0.015000603161752224
348,0.23567363619804382,0.4860667586326599,89.59484100341797,2.0434396266937256,1.12929105758667,0.9331302046775818,29125,,,,,,,,,,
349,,,,,,,29126,0.17624486982822418,0.2813716232776642,0.023882990702986717,,,,,,,
350,,,,,,,29128,,,,0.0044481041841208935,-0.0015608337707817554,0.704599916934967,0.7095876932144165,,,
351,,,,,,,29130,,,,,,,,0.19894060492515564,-0.01180284284055233,0.029684847220778465
352,-0.08536244928836823,0.8707520961761475,89.61847686767578,2.057952404022217,1.1645164489746094,0.9348728656768799,29225,,,,,,,,,,
353,,,,,,,29226,0.17498010396957397,0.2766030728816986,0.023127039894461632,,,,,,,
354,,,,,,,29228,,,,0.004826679825782776,-0.0059159076772630215,0.7047233581542969,0.7094396948814392,,,
355,,,,,,,29230,,,,,,,,-0.06251025944948196,-0.06333324313163757,0.014406280592083931
356,-0.1259167194366455,1.5116971731185913,89.71476745605469,2.074490785598755,1.1989762783050537,0.9355481863021851,29325,,,,,,,,,,
357,,,,,,,29326,0.17193999886512756,0.268656462430954,0.016880953684449196,,,,,,,
358,,,,,,,29328,,,,0.008525818586349487,-0.010126093402504921,0.70527184009552,0.7088120579719543,,,
359,,,,,,,29330,,,,,,,,0.17580470442771912,-0.043108779937028885,0.007829628884792328
360,-0.4628860652446747,1.3429230451583862,89.81425476074219,2.0913991928100586,1.2270476818084717,0.9348335862159729,29425,,,,,,,,,,
361,,,,,,,29426,0.1660735011100769,0.24421153962612152,0.015063432045280933,,,,,,,
362,,,,,,,29428,,,,0.005412308499217033,-0.011151385493576527,0.7058712244033813,0.7082302570343018,,,
363,,,,,,,29430,,,,,,,,-0.17283709347248077,0.028892386704683304,0.03766351938247681
364,-0.5244134664535522,1.149978518486023,89.91532135009766,2.108283519744873,1.2534250020980835,0.9316492676734924,29525,,,,,,,,,,
365,,,,,,,29526,0.1599685698747635,0.2276645004749298,0.030812686309218407,,,,,,,
366,,,,,,,29528,,,,0.003852513153105974,-0.010334608145058155,0.7065079212188721,0.7076177597045898,,,
367,,,,,,,29530,,,,,,,,-0.03855248540639877,-0.11944283545017242,0.010183997452259064
368,-0.6926497220993042,0.8482576608657837,89.94502258300781,2.123082399368286,1.2726095914840698,0.929338812828064,29625,,,,,,,,,,
369,,,,,,,29626,0.1477510780096054,0.20747771859169006,0.024144310504198074,,,,,,,
370,,,,,,,29628,,,,0.0009556529694236815,-0.009508606046438217,0.7067028284072876,0.7074445486068726,,,
371,,,,,,,29630,,,,,,,,0.06819595396518707,-0.025241484865546227,0.014678099192678928
372,-0.8046827912330627,0.6450230479240417,90.01687622070312,2.137052059173584,1.2837212085723877,0.9253628253936768,29725,,,,,,,,,,
373,,,,,,,29726,0.13450123369693756,0.18007177114486694,0.023813247680664062,,,,,,,
374,,,,,,,29728,,,,-0.000983881065621972,-0.008945563808083534,0.7071536779403687,0.707001268863678,,,
375,,,,,,,29730,,,,,,,,-0.2549954950809479,0.08022332191467285,0.010981488041579723
376,-0.8078319430351257,-0.5616250038146973,90.10277557373047,2.1502339839935303,1.2908415794372559,0.9201393723487854,29825,,,,,,,,,,
377,,,,,,,29826,0.12291049212217331,0.16704285144805908,0.013029717840254307,,,,,,,
378,,,,,,,29828,,,,-0.00844889972358942,-0.0015268316492438316,0.7077383995056152,0.7064210772514343,,,
379,,,,,,,29830,,,,,,,,-0.027992310002446175,-0.07221918553113937,0.025014184415340424
380,-0.7937523126602173,-0.8936888575553894,90.18267822265625,2.1671295166015625,1.295774221420288,0.9121239185333252,29925,,,,,,,,,,
381,,,,,,,29926,0.11330113559961319,0.16365180909633636,0.030922595411539078,,,,,,,
382,,,,,,,29928,,,,-0.010413238778710365,0.0006000857101753354,0.708232045173645,0.7059012055397034,,,
383,,,,,,,29930,,,,,,,,-0.14237923920154572,-0.04342601075768471,0.010222704149782658
384,-0.8392104506492615,-0.9781226515769958,90.23575592041016,2.1773412227630615,1.299852728843689,0.9026896953582764,30025,,,,,,,,,,
385,,,,,,,30026,0.0988917201757431,0.16558240354061127,0.025310950353741646,,,,,,,
386,,,,,,,30028,,,,-0.011215435341000557,0.0008341188076883554,0.7085587382316589,0.7055608630180359,,,
387,,,,,,,30030,,,,,,,,-0.009134777821600437,-0.01905546337366104,0.013486359268426895
388,-0.9125841856002808,-1.2820262908935547,90.30228424072266,2.1884214878082275,1.2855985164642334,0.8848394155502319,30125,,,,,,,,,,
389,,,,,,,30126,0.08850762993097305,0.15033632516860962,0.022386424243450165,,,,,,,
390,,,,,,,30128,,,,-0.014579497277736664,0.003230341710150242,0.7089089155197144,0.7051405310630798,,,
391,,,,,,,30130,,,,,,,,-0.3235170841217041,-0.01800740323960781,-0.0023020501248538494
392,-0.8916266560554504,-2.7612833976745605,90.262939453125,2.203508138656616,1.3006880283355713,0.8726303577423096,30225,,,,,,,,,,
393,,,,,,,30226,0.07820773869752884,0.1826949566602707,0.02876921370625496,,,,,,,
394,,,,,,,30228,,,,-0.02256351336836815,0.011484801769256592,0.7086318731307983,0.7051226496696472,,,
395,,,,,,,30230,,,,,,,,0.0270643662661314,0.016763554885983467,0.0019710632041096687
396,-0.8582363128662109,-2.536139488220215,90.1869125366211,2.2165210247039795,1.2971839904785156,0.8551467061042786,30325,,,,,,,,,,
397,,,,,,,30326,0.07175838947296143,0.2050718516111374,0.033049292862415314,,,,,,,
398,,,,,,,30328,,,,-0.021023234352469444,0.01019739918410778,0.7080435752868652,0.7057806849479675,,,
399,,,,,,,30330,,,,,,,,0.03304845467209816,-0.02329130284488201,-0.0353132039308548
400,-0.8680389523506165,-2.299898386001587,89.9549560546875,2.233112096786499,1.3168447017669678,0.8489242196083069,30425,,,,,,,,,,
401,,,,,,,30426,0.06678909063339233,0.2444945126771927,0.04816868156194687,,,,,,,
402,,,,,,,30428,,,,-0.019888117909431458,0.009169304743409157,0.706542432308197,0.7073302268981934,,,
403,,,,,,,30430,,,,,,,,-0.11914833635091782,-0.03327621519565582,-0.06961314380168915
404,-1.1394397020339966,-2.462249279022217,89.59394836425781,2.2540862560272217,1.3518744707107544,0.8439092040061951,30525,,,,,,,,,,
405,,,,,,,30526,0.06377428025007248,0.29412180185317993,0.05711978301405907,,,,,,,
406,,,,,,,30528,,,,-0.022192126139998436,0.008241151459515095,0.7045502066612244,0.7092577815055847,,,
407,,,,,,,30530,,,,,,,,0.24648480117321014,-0.021087326109409332,-0.047995880246162415
408,-1.348912239074707,-1.1486778259277344,89.30774688720703,2.2703516483306885,1.3933286666870117,0.8442990779876709,30625,,,,,,,,,,
409,,,,,,,30626,0.054906126111745834,0.33812928199768066,0.06871559470891953,,,,,,,
410,,,,,,,30628,,,,-0.015417768619954586,-0.0011424475815147161,0.7028214931488037,0.7111968398094177,,,
411,,,,,,,30630,,,,,,,,0.17379862070083618,-0.09421612322330475,-0.055056504905223846
412,-1.4983272552490234,0.45558053255081177,89.14285278320312,2.293147087097168,1.4512783288955688,0.8497239351272583,30725,,,,,,,,,,
413,,,,,,,30726,0.04902266710996628,0.37616750597953796,0.07224780321121216,,,,,,,
414,,,,,,,30728,,,,-0.006524346303194761,-0.012007865123450756,0.7016946077346802,0.7123453617095947,,,
415,,,,,,,30730,,,,,,,,0.3956927955150604,-0.010793275199830532,0.003775235265493393
416,-1.70595121383667,2.307060718536377,89.18147277832031,2.302067756652832,1.5006210803985596,0.8582525849342346,30825,,,,,,,,,,
417,,,,,,,30826,0.028100667521357536,0.37527671456336975,0.08537572622299194,,,,,,,
418,,,,,,,30828,,,,0.0038027341943234205,-0.025628712028265,0.7015676498413086,0.7121302485466003,,,
419,,,,,,,30830,,,,,,,,0.10614309459924698,-0.062299057841300964,-0.005870176013559103
420,-2.042513847351074,2.9478588104248047,89.2131576538086,2.3112599849700928,1.5617544651031494,0.8693596124649048,30925,,,,,,,,,,
421,,,,,,,30926,0.0016337181441485882,0.3547689616680145,0.09061381965875626,,,,,,,
422,,,,,,,30928,,,,0.0053750514052808285,-0.03082185611128807,0.7015638947486877,0.7119179964065552,,,
423,,,,,,,30930,,,,,,,,0.1999230831861496,-0.05699879303574562,-0.006190496031194925
424,-1.937792181968689,3.402763843536377,89.2566909790039,2.313290596008301,1.6078311204910278,0.8822851777076721,31025,,,,,,,,,,
425,,,,,,,31026,-0.029732923954725266,0.32333433628082275,0.09868286550045013,,,,,,,
426,,,,,,,31028,,,,0.009263911284506321,-0.03303847461938858,0.7017900943756104,0.7115556001663208,,,
427,,,,,,,31030,,,,,,,,0.08364719897508621,0.05391465499997139,0.014151281677186489
428,-1.301835298538208,4.068660259246826,89.43511199951172,2.313743829727173,1.6616270542144775,0.8980723023414612,31125,,,,,,,,,,
429,,,,,,,31126,-0.05479233339428902,0.28244179487228394,0.08160702139139175,,,,,,,
430,,,,,,,31128,,,,0.016908034682273865,-0.033211201429367065,0.7028363943099976,0.7103732228279114,,,
431,,,,,,,31130,,,,,,,,-0.10310447961091995,0.08281628042459488,0.019008683040738106
432,-1.2138220071792603,3.169602870941162,89.514404296875,2.316852569580078,1.6978018283843994,0.9113494157791138,31225,,,,,,,,,,
433,,,,,,,31226,-0.06695803999900818,0.23432935774326324,0.0737457275390625,,,,,,,
434,,,,,,,31228,,,,0.011953218840062618,-0.027092983946204185,0.7035865187644958,0.7099909782409668,,,
435,,,,,,,31230,,,,,,,,-0.008526086807250977,0.03839673101902008,0.022335587069392204
436,-0.8678765296936035,2.796903371810913,89.64354705810547,2.3167779445648193,1.725768804550171,0.9230972528457642,31325,,,,,,,,,,
437,,,,,,,31326,-0.07764896005392075,0.1908782571554184,0.06838370859622955,,,,,,,
438,,,,,,,31328,,,,0.011832460761070251,-0.022647224366664886,0.7045418620109558,0.7092008590698242,,,
439,,,,,,,31330,,,,,,,,-0.09237777441740036,0.04125218838453293,0.02825148031115532
440,-0.6799005270004272,2.5999252796173096,89.75357818603516,2.317229986190796,1.7454737424850464,0.9332382678985596,31425,,,,,,,,,,
441,,,,,,,31426,-0.08141259104013443,0.1481723040342331,0.0645240768790245,,,,,,,
442,,,,,,,31428,,,,0.011803763918578625,-0.020261405035853386,0.7052944898605347,0.7085251212120056,,,
443,,,,,,,31430,,,,,,,,-0.1923014372587204,-0.036982461810112,0.014174801297485828
444,-0.5648635625839233,1.5275440216064453,89.83621978759766,2.3182578086853027,1.7552200555801392,0.939685583114624,31525,,,,,,,,,,
445,,,,,,,31526,-0.08292489498853683,0.11340789496898651,0.06171637400984764,,,,,,,
446,,,,,,,31528,,,,0.005679380148649216,-0.012192613445222378,0.7060486674308777,0.7080341577529907,,,
447,,,,,,,31530,,,,,,,,-0.14428356289863586,0.030773384496569633,0.016087176278233528
448,-0.875153124332428,0.11932099610567093,89.88151550292969,2.3189709186553955,1.7651160955429077,0.9460456967353821,31625,,,,,,,,,,
449,,,,,,,31626,-0.08355824649333954,0.0932527482509613,0.04356863349676132,,,,,,,
450,,,,,,,31628,,,,-0.004670294001698494,-0.00613166531547904,0.7063480019569397,0.7078214287757874,,,
451,,,,,,,31630,,,,,,,,-0.22849491238594055,-0.06355484575033188,0.0016572823515161872
452,-0.8066156506538391,-0.4157232642173767,89.92420196533203,2.329432487487793,1.7592865228652954,0.9418849349021912,31725,,,,,,,,,,
453,,,,,,,31726,-0.07733766734600067,0.07862421870231628,0.017920881509780884,,,,,,,
454,,,,,,,31728,,,,-0.007798845414072275,-0.002220070455223322,0.7066451907157898,0.7075201869010925,,,
455,,,,,,,31730,,,,,,,,-0.06262291222810745,-0.04677103832364082,-0.002188117476180196
456,-1.2006020545959473,-1.1317734718322754,89.9190902709961,2.3389523029327393,1.7587069272994995,0.9346163868904114,31825,,,,,,,,,,
457,,,,,,,31826,-0.07581272721290588,0.07924046367406845,0.011386590078473091,,,,,,,
458,,,,,,,31828,,,,-0.014391624368727207,-0.0004145433194935322,0.7066066265106201,0.7074586749076843,,,
459,,,,,,,31830,,,,,,,,-0.18809130787849426,-0.10079243034124374,0.022386640310287476
460,-1.9115290641784668,-2.391294479370117,89.94212341308594,2.344759941101074,1.7621479034423828,0.9321537613868713,31925,,,,,,,,,,
461,,,,,,,31926,-0.08660116791725159,0.1023254469037056,0.009983977302908897,,,,,,,
462,,,,,,,31928,,,,-0.026543576270341873,0.0029738987796008587,0.7067429423332214,0.7069646120071411,,,
463,,,,,,,31930,,,,,,,,-0.05891614034771919,-0.09463272988796234,0.0035155140794813633
464,-2.12689471244812,-2.4831135272979736,89.9640884399414,2.3369734287261963,1.7770534753799438,0.9364083409309387,32025,,,,,,,,,,
465,,,,,,,32026,-0.11985167860984802,0.14903579652309418,0.022452130913734436,,,,,,,
466,,,,,,,32028,,,,-0.02843848615884781,0.002207044046372175,0.7068812251091003,0.7067554593086243,,,
467,,,,,,,32030,,,,,,,,0.0902097299695015,0.03051171638071537,-0.022778864949941635
468,-2.013209819793701,-1.9943827390670776,89.92758178710938,2.3329672813415527,1.7803422212600708,0.9331397414207458,32125,,,,,,,,,,
469,,,,,,,32126,-0.14317309856414795,0.16935940086841583,0.02756776660680771,,,,,,,
470,,,,,,,32128,,,,-0.02430752106010914,-0.0001276645198231563,0.7066975235939026,0.7070967555046082,,,
471,,,,,,,32130,,,,,,,,0.0981384664773941,0.06803642213344574,-0.0006516104913316667
472,-1.2623894214630127,-0.8897417187690735,89.95010375976562,2.326050043106079,1.7898284196853638,0.9267135262489319,32225,,,,,,,,,,
473,,,,,,,32226,-0.16373763978481293,0.18488185107707977,0.027015389874577522,,,,,,,
474,,,,,,,32228,,,,-0.013280309736728668,-0.002293687779456377,0.7067945003509521,0.7072891592979431,,,
475,,,,,,,32230,,,,,,,,0.019416052848100662,0.008741185069084167,-0.0034654266200959682
476,-1.4796462059020996,-1.764621615409851,89.95710754394531,2.315581798553467,1.7914979457855225,0.9150682091712952,32325,,,,,,,,,,
477,,,,,,,32326,-0.1799185574054718,0.18433378636837006,0.021298548206686974,,,,,,,
478,,,,,,,32328,,,,-0.020015977323055267,0.0017659981967881322,0.7068393230438232,0.7070873379707336,,,
479,,,,,,,32330,,,,,,,,0.000508377852384001,0.08885137736797333,-0.0020890417508780956
480,-0.8136017918586731,-1.1601636409759521,90.00212097167969,2.299071788787842,1.793256402015686,0.8978028297424316,32425,,,,,,,,,,
481,,,,,,,32426,-0.19668413698673248,0.18788406252861023,0.015892071649432182,,,,,,,
482,,,,,,,32428,,,,-0.012178896926343441,0.002138301031664014,0.7071159482002258,0.7069880366325378,,,
483,,,,,,,32430,,,,,,,,-0.008868681266903877,0.029849160462617874,-0.006194704212248325
484,-0.46875840425491333,-1.4077473878860474,89.962158203125,2.2804195880889893,1.794286847114563,0.8802012205123901,32525,,,,,,,,,,
485,,,,,,,32526,-0.20659185945987701,0.18665355443954468,0.008138391189277172,,,,,,,
486,,,,,,,32528,,,,-0.011576875112950802,0.005797961726784706,0.7068488597869873,0.7072446942329407,,,
487,,,,,,,32530,,,,,,,,-0.015765244141221046,0.09314344823360443,-0.011784233152866364
488,-0.5764452815055847,-2.508212089538574,89.93138122558594,2.2646408081054688,1.810295581817627,0.8793976902961731,32626,,,,,,,,,,
489,,,,,,,32626,-0.20978796482086182,0.21192820370197296,0.020405959337949753,,,,,,,
490,,,,,,,32628,,,,-0.02001994661986828,0.012622538954019547,0.7066153287887573,0.7072005271911621,,,
491,,,,,,,32630,,,,,,,,-0.09743575751781464,0.028101548552513123,0.007276507094502449
492,-0.10463133454322815,-2.139116048812866,89.86099243164062,2.252638578414917,1.849209189414978,0.8851505517959595,32726,,,,,,,,,,
493,,,,,,,32726,-0.2049557864665985,0.27624329924583435,0.05609380081295967,,,,,,,
494,,,,,,,32728,,,,-0.01382931787520647,0.01257027592509985,0.7061365246772766,0.707827627658844,,,
495,,,,,,,32730,,,,,,,,0.013164328411221504,-0.04021017253398895,-0.037783313542604446
496,0.022166166454553604,-1.4476107358932495,89.70502471923828,2.238919734954834,1.8835747241973877,0.8952572345733643,32826,,,,,,,,,,
497,,,,,,,32826,-0.20045238733291626,0.3165016770362854,0.06328123807907104,,,,,,,
498,,,,,,,32828,,,,-0.008772357366979122,0.009091881103813648,0.7052255272865295,0.7088690400123596,,,
499,,,,,,,32830,,,,,,,,0.21386578679084778,0.12400254607200623,0.01003965362906456
500,0.3907577693462372,0.23071716725826263,89.6552734375,2.2256405353546143,1.9174705743789673,0.9070590138435364,32925,,,,,,,,,,
501,,,,,,,32926,-0.19176039099693298,0.33425185084342957,0.06436465680599213,,,,,,,
502,,,,,,,32928,,,,0.004914523102343082,-0.00011826770787592977,0.7049099802970886,0.709278404712677,,,
503,,,,,,,32930,,,,,,,,0.2949027419090271,-0.01777130737900734,-0.023085180670022964
504,-0.08563222736120224,0.6121085286140442,89.57781982421875,2.2091331481933594,1.9518458843231201,0.9147849082946777,33025,,,,,,,,,,
505,,,,,,,33026,-0.18506549298763275,0.3249414563179016,0.05604827031493187,,,,,,,
506,,,,,,,33028,,,,0.002579296240583062,-0.004475632216781378,0.7044602036476135,0.7097232341766357,,,
507,,,,,,,33030,,,,,,,,-0.023808877915143967,-0.10293222218751907,-0.02142019383609295
508,-0.3726878762245178,1.0836776494979858,89.4906997680664,2.1949353218078613,1.9860866069793701,0.9225286841392517,33125,,,,,,,,,,
509,,,,,,,33126,-0.1850961148738861,0.3152618706226349,0.05356355011463165,,,,,,,
510,,,,,,,33128,,,,0.004257761407643557,-0.009333683177828789,0.7038869261741638,0.7102364897727966,,,
511,,,,,,,33130,,,,,,,,0.007166716270148754,-0.08635745942592621,0.002602294785901904
512,-0.5300151109695435,1.2644249200820923,89.50086212158203,2.1764605045318604,2.0145390033721924,0.9279131889343262,33225,,,,,,,,,,
513,,,,,,,33226,-0.19385749101638794,0.2935294508934021,0.0418337918817997,,,,,,,
514,,,,,,,33228,,,,0.005270425695925951,-0.011010211892426014,0.7039613723754883,0.7101318836212158,,,
515,,,,,,,33230,,,,,,,,0.11092774569988251,0.12911275029182434,0.004684927873313427
516,-0.012447654269635677,1.785223364830017,89.53522491455078,2.150825262069702,2.0421369075775146,0.9336699843406677,33325,,,,,,,,,,
517,,,,,,,33326,-0.20441491901874542,0.26697811484336853,0.04817237704992294,,,,,,,
518,,,,,,,33328,,,,0.011192426085472107,-0.011089041829109192,0.7041137218475342,0.7099109292030334,,,
519,,,,,,,33330,,,,,,,,-0.0008870370802469552,0.03823127597570419,-0.0027445510495454073
520,-0.3996732234954834,0.8883380889892578,89.5445785522461,2.13415265083313,2.0636677742004395,0.9379161596298218,33425,,,,,,,,,,
521,,,,,,,33426,-0.2010846734046936,0.23682178556919098,0.040784504264593124,,,,,,,
522,,,,,,,33428,,,,0.0016520433127880096,-0.007412557024508715,0.7042757868766785,0.7098844051361084,,,
523,,,,,,,33430,,,,,,,,-0.22368758916854858,-0.10925257951021194,0.013854408636689186
524,-0.22141455113887787,0.2240903526544571,89.58208465576172,2.1235172748565674,2.0850679874420166,0.9405068755149841,33525,,,,,,,,,,
525,,,,,,,33526,-0.19991439580917358,0.22566363215446472,0.03920822963118553,,,,,,,
526,,,,,,,33528,,,,0.0005363178788684309,-0.0023249066434800625,0.7045326828956604,0.7096661925315857,,,
527,,,,,,,33530,,,,,,,,0.020856190472841263,0.08983735740184784,0.00028358251438476145
528,-0.1897561252117157,-0.14440718293190002,89.5610580444336,2.1150095462799072,2.103952646255493,0.9454459547996521,33625,,,,,,,,,,
529,,,,,,,33626,-0.1903071403503418,0.21892954409122467,0.029618075117468834,,,,,,,
530,,,,,,,33628,,,,-0.0021635976154357195,7.130228186724707e-05,0.7044201493263245,0.7097785472869873,,,
531,,,,,,,33630,,,,,,,,-0.013919459655880928,0.04672207310795784,0.007230890449136496
532,0.14671768248081207,0.3039199411869049,89.5826416015625,2.1076157093048096,2.12034010887146,0.9498106241226196,33725,,,,,,,,,,
533,,,,,,,33726,-0.17704841494560242,0.21463140845298767,0.022654805332422256,,,,,,,
534,,,,,,,33728,,,,0.0026346691884100437,-0.0011539643164724112,0.704522967338562,0.7096740007400513,,,
535,,,,,,,33730,,,,,,,,-0.025677340105175972,-0.0799163356423378,0.0037837966810911894
536,-0.8287611603736877,-0.7737507820129395,89.56362915039062,2.1030874252319336,2.1319873332977295,0.9490247964859009,33825,,,,,,,,,,
537,,,,,,,33826,-0.16771124303340912,0.19970843195915222,0.0353219099342823,,,,,,,
538,,,,,,,33828,,,,-0.01182630192488432,1.5929326764307916e-05,0.7043707370758057,0.7097323536872864,,,
539,,,,,,,33830,,,,,,,,-0.23950189352035522,-0.18438829481601715,0.0017819140339270234
540,-1.1835248470306396,-1.0138533115386963,89.55021667480469,2.1020238399505615,2.1446876525878906,0.9458616375923157,33925,,,,,,,,,,
541,,,,,,,33926,-0.1704818159341812,0.21216939389705658,0.031015245243906975,,,,,,,
542,,,,,,,33928,,,,-0.013837432488799095,-0.001212144154123962,0.7043119668960571,0.7097533345222473,,,
543,,,,,,,33930,,,,,,,,-0.04934084787964821,-0.11065743118524551,-0.0026343862991780043
544,-1.4772179126739502,-1.2599213123321533,89.54157257080078,2.0924246311187744,2.149528980255127,0.9370418190956116,34025,,,,,,,,,,
545,,,,,,,34027,-0.1857633739709854,0.21175047755241394,0.02105759270489216,,,,,,,
546,,,,,,,34028,,,,-0.016240868717432022,-0.0011271267430856824,0.7042592167854309,0.7097547650337219,,,
547,,,,,,,34030,,,,,,,,0.11247611045837402,0.11756649613380432,-0.001251411042176187
548,-1.3094285726547241,-0.8751883506774902,89.52057647705078,2.0831046104431152,2.1574063301086426,0.9281667470932007,34125,,,,,,,,,,
549,,,,,,,34127,-0.19617962837219238,0.20709194242954254,0.012168182991445065,,,,,,,
550,,,,,,,34128,,,,-0.01355831976979971,-0.0025383485481142998,0.7041167616844177,0.7099488377571106,,,
551,,,,,,,34130,,,,,,,,0.008095948025584221,0.02581712231040001,-0.009593795984983444
552,-1.213124394416809,-1.2020182609558105,89.52169799804688,2.068977117538452,2.1679699420928955,0.9197719693183899,34225,,,,,,,,,,
553,,,,,,,34227,-0.2105044573545456,0.2131984382867813,0.006724013481289148,,,,,,,
554,,,,,,,34228,,,,-0.0165056474506855,0.0002364709653193131,0.7041897177696228,0.7098185420036316,,,
555,,,,,,,34230,,,,,,,,-0.28164684772491455,-0.21633119881153107,0.007620508316904306
556,-1.6943576335906982,-1.9066450595855713,89.48075103759766,2.04915189743042,2.170233726501465,0.9032717347145081,34325,,,,,,,,,,
557,,,,,,,34326,-0.23423992097377777,0.2126767933368683,0.0017948952736333013,,,,,,,
558,,,,,,,34328,,,,-0.022255590185523033,0.0019188780570402741,0.7039106488227844,0.7099357843399048,,,
559,,,,,,,34330,,,,,,,,-0.0775608941912651,0.05706656351685524,0.015969622880220413
560,-1.0721276998519897,-2.0412943363189697,89.47801208496094,2.0227935314178467,2.181227445602417,0.8899661898612976,34425,,,,,,,,,,
561,,,,,,,34426,-0.2618755102157593,0.23379069566726685,0.015077951364219189,,,,,,,
562,,,,,,,34428,,,,-0.017950158566236496,0.006784145254641771,0.7038096785545349,0.7101278901100159,,,
563,,,,,,,34430,,,,,,,,0.09384459257125854,0.2435849905014038,-0.006009670440107584
564,-0.19890359044075012,-1.6975473165512085,89.42237854003906,2.000795364379883,2.1927056312561035,0.8776308298110962,34525,,,,,,,,,,
565,,,,,,,34526,-0.2668234407901764,0.24890872836112976,0.022390035912394524,,,,,,,
566,,,,,,,34528,,,,-0.011063463054597378,0.009621495380997658,0.7034147381782532,0.7106270790100098,,,
567,,,,,,,34530,,,,,,,,0.0518462248146534,0.14485545456409454,-0.017407814040780067
568,0.08068696409463882,-1.841880202293396,89.43113708496094,1.9868272542953491,2.221076011657715,0.8811376690864563,34625,,,,,,,,,,
569,,,,,,,34626,-0.25200995802879333,0.27949264645576477,0.04680401086807251,,,,,,,
570,,,,,,,34628,,,,-0.010808304883539677,0.01191678550094366,0.7034880518913269,0.7105235457420349,,,
571,,,,,,,34630,,,,,,,,-0.17417480051517487,-0.20784063637256622,0.009917551651597023
572,-0.29926568269729614,-1.5844024419784546,89.47483825683594,1.966699481010437,2.258519172668457,0.8907783627510071,34725,,,,,,,,,,
573,,,,,,,34726,-0.2512959837913513,0.3239519000053406,0.06560210138559341,,,,,,,
574,,,,,,,34728,,,,-0.010285913944244385,0.007411953993141651,0.7038377523422241,0.710246205329895,,,
575,,,,,,,34730,,,,,,,,0.2922537922859192,0.08586408197879791,0.0037267275620251894
576,-0.2278866320848465,-0.41357728838920593,89.5814208984375,1.9480780363082886,2.2989578247070312,0.9016639590263367,34825,,,,,,,,,,
577,,,,,,,34826,-0.2482236921787262,0.3503430485725403,0.07101141661405563,,,,,,,
578,,,,,,,34828,,,,-0.003954031504690647,0.0011602903250604868,0.7045176029205322,0.7096731066703796,,,
579,,,,,,,34830,,,,,,,,0.25743573904037476,0.038971591740846634,0.018033532425761223
580,0.13474370539188385,1.1818636655807495,89.72504425048828,1.9330615997314453,2.3382511138916016,0.9146122336387634,34925,,,,,,,,,,
581,,,,,,,34926,-0.23983369767665863,0.3513756990432739,0.07813599705696106,,,,,,,
582,,,,,,,34928,,,,0.00810865219682455,-0.006480826064944267,0.705377995967865,0.7087539434432983,,,
583,,,,,,,34930,,,,,,,,0.32505378127098083,0.04876768961548805,0.007641603704541922
584,-0.2699402868747711,1.8359929323196411,89.80027770996094,1.9158953428268433,2.3834526538848877,0.931721031665802,35025,,,,,,,,,,
585,,,,,,,35026,-0.23101294040679932,0.3361256718635559,0.07361825555562973,,,,,,,
586,,,,,,,35028,,,,0.009640646167099476,-0.01301112212240696,0.7057533264160156,0.7082711458206177,,,
587,,,,,,,35030,,,,,,,,-0.22855770587921143,-0.347139447927475,-0.00040268898010253906
588,-1.1245347261428833,1.3554893732070923,89.85289764404297,1.8969026803970337,2.4238035678863525,0.9499561786651611,35125,,,,,,,,,,
