,stabilizer.roll,stabilizer.pitch,stabilizer.yaw,stateEstimate.x,stateEstimate.y,stateEstimate.z,time,stateEstimate.vx,stateEstimate.vy,stateEstimate.vz,stateEstimate.qx,stateEstimate.qy,stateEstimate.qz,stateEstimate.qw,controller.r_pitch,controller.r_roll,controller.r_yaw
0,-0.3315761089324951,-0.09681569784879684,90.0517807006836,1.4015471935272217,0.28268933296203613,0.21588724851608276,13116,,,,,,,,,,
1,,,,,,,13117,0.062233902513980865,-0.05827902629971504,0.003255639923736453,,,,,,,
2,,,,,,,13119,,,,-0.002576494123786688,-0.001487337751314044,0.707424521446228,0.7067811489105225,,,
3,,,,,,,13127,,,,,,,,0.0013924555387347937,-0.00033557109418325126,0.001115425257012248
4,-0.3262179493904114,-0.1008397787809372,90.05269622802734,1.4026544094085693,0.2847782075405121,0.2140142023563385,13216,,,,,,,,,,
5,,,,,,,13217,0.06384823471307755,-0.055297717452049255,0.0026439058128744364,,,,,,,
6,,,,,,,13219,,,,-0.002527874195948243,-0.0014522660057991743,0.7074306011199951,0.7067753672599792,,,
7,,,,,,,13227,,,,,,,,0.0008280214970000088,0.001490666181780398,0.0011424794793128967
8,-0.3265075087547302,-0.0826888233423233,90.04878997802734,1.4019180536270142,0.2814139723777771,0.2142450362443924,13316,,,,,,,,,,
9,,,,,,,13317,0.06318166851997375,-0.060070887207984924,0.003333075437694788,,,,,,,
10,,,,,,,13319,,,,-0.0024200058542191982,-0.0015646202955394983,0.7074061632156372,0.7067999243736267,,,
11,,,,,,,13327,,,,,,,,0.000871278636623174,-0.002003217814490199,-0.001054865773767233
12,-0.318418025970459,-0.07944807410240173,90.0496597290039,1.4031702280044556,0.28013089299201965,0.21587824821472168,13416,,,,,,,,,,
13,,,,,,,13417,0.06309562921524048,-0.06048693507909775,0.004292628262192011,,,,,,,
14,,,,,,,13419,,,,-0.002374941250309348,-0.0015206164680421352,0.7074114680290222,0.7067949175834656,,,
15,,,,,,,13427,,,,,,,,0.003080629976466298,0.00401014368981123,-0.0026185233145952225
16,-0.3340517282485962,-0.12711773812770844,90.00251770019531,1.402172327041626,0.2920457720756531,0.21824026107788086,13516,,,,,,,,,,
17,,,,,,,13517,0.04967484250664711,-0.03789617493748665,0.006828302517533302,,,,,,,
18,,,,,,,13519,,,,-0.002745653735473752,-0.001333543797954917,0.7071212530136108,0.7070842981338501,,,
19,,,,,,,13527,,,,,,,,0.18399369716644287,-0.10170218348503113,-0.08721618354320526
20,0.2618381679058075,-0.27555596828460693,89.9476547241211,1.4006030559539795,0.2944125533103943,0.22157612442970276,13616,,,,,,,,,,
21,,,,,,,13617,0.03771761804819107,-0.028432361781597137,0.025971902534365654,,,,,,,
22,,,,,,,13619,,,,-2.284003494423814e-05,0.0032816610764712095,0.7067758440971375,0.707428514957428,,,
23,,,,,,,13627,,,,,,,,-0.15844587981700897,0.331620454788208,0.10242139548063278
24,0.02204054594039917,-0.9989298582077026,90.75118255615234,1.392037272453308,0.2946719229221344,0.2105761170387268,13716,,,,,,,,,,
25,,,,,,,13717,0.0313451886177063,-0.01556490920484066,0.1316131055355072,,,,,,,
26,,,,,,,13719,,,,-0.005970716010779142,0.006203582044690847,0.711699903011322,0.7024294137954712,,,
27,,,,,,,13727,,,,,,,,0.07486173510551453,0.4536241888999939,0.14391204714775085
28,1.037436842918396,0.1743299663066864,91.55042266845703,1.3898899555206299,0.26816898584365845,0.21729379892349243,13816,,,,,,,,,,
29,,,,,,,13817,0.042191747575998306,-0.03645884245634079,0.2250080555677414,,,,,,,
30,,,,,,,13819,,,,0.007478743325918913,0.005383918061852455,0.7165887355804443,0.697433590888977,,,
31,,,,,,,13827,,,,,,,,0.5424942970275879,-0.0650450587272644,0.13505205512046814
32,1.5241429805755615,1.1176319122314453,91.9870376586914,1.394858717918396,0.26114708185195923,0.2315703183412552,13916,,,,,,,,,,
33,,,,,,,13917,0.06246846169233322,-0.05729646608233452,0.2536313235759735,,,,,,,
34,,,,,,,13919,,,,0.016314484179019928,0.0027561504393815994,0.7192534804344177,0.6945492625236511,,,
35,,,,,,,13927,,,,,,,,-0.29228588938713074,-0.04648958891630173,0.011052052490413189
36,0.9746614098548889,0.09211967885494232,92.07528686523438,1.415785789489746,0.2553875744342804,0.26504427194595337,14016,,,,,,,,,,
37,,,,,,,14017,0.10063489526510239,-0.06347029656171799,0.24335141479969025,,,,,,,
38,,,,,,,14019,,,,0.006502801086753607,0.0057819136418402195,0.7197967767715454,0.6941288709640503,,,
39,,,,,,,14027,,,,,,,,0.015169511549174786,0.05887322872877121,0.021347155794501305
40,0.42712950706481934,0.13191741704940796,92.13848114013672,1.4285093545913696,0.25313326716423035,0.2836008071899414,14116,,,,,,,,,,
41,,,,,,,14117,0.11807798594236374,-0.05962109938263893,0.2052198350429535,,,,,,,
42,,,,,,,14119,,,,0.002083820290863514,0.0005457196966744959,0.7202224135398865,0.6937384009361267,,,
43,,,,,,,14127,,,,,,,,-0.008815750479698181,-0.27537891268730164,0.00530316773802042
44,-0.3647134602069855,-0.39507782459259033,92.24823760986328,1.4386740922927856,0.22977520525455475,0.3120197355747223,14216,,,,,,,,,,
45,,,,,,,14217,0.11220324039459229,-0.07730540633201599,0.1921503245830536,,,,,,,
46,,,,,,,14219,,,,-0.0050179376266896725,9.844128362601623e-05,0.7208600044250488,0.693061113357544,,,
47,,,,,,,14227,,,,,,,,-0.0169087965041399,-0.10077401250600815,-0.015123036690056324
48,-0.9505529999732971,-0.5346980094909668,92.22119903564453,1.4297581911087036,0.23008914291858673,0.31895142793655396,14316,,,,,,,,,,
49,,,,,,,14317,0.07746773958206177,-0.060477547347545624,0.1701120138168335,,,,,,,
50,,,,,,,14319,,,,-0.008912097662687302,-0.002346418099477887,0.7206164598464966,0.6932711601257324,,,
51,,,,,,,14327,,,,,,,,-0.03831421211361885,0.10936872661113739,-0.016688568517565727
52,-0.6390959024429321,-0.9886112213134766,92.11332702636719,1.4338958263397217,0.2395421415567398,0.3582131564617157,14416,,,,,,,,,,
53,,,,,,,14417,0.06187039241194725,-0.028907500207424164,0.1949479579925537,,,,,,,
54,,,,,,,14419,,,,-0.010035526938736439,0.0016546945553272963,0.7199033498764038,0.6939983367919922,,,
55,,,,,,,14427,,,,,,,,0.11757293343544006,0.007932830601930618,-0.046594057232141495
56,-0.15169379115104675,-0.3061855733394623,91.85537719726562,1.4327056407928467,0.2551497220993042,0.3974573314189911,14516,,,,,,,,,,
57,,,,,,,14517,0.04614540562033653,0.003246225183829665,0.21224986016750336,,,,,,,
58,,,,,,,14519,,,,-0.0022568018175661564,0.0010359636507928371,0.7183240652084351,0.6957027912139893,,,
59,,,,,,,14527,,,,,,,,0.09332499653100967,0.0742526650428772,-0.04625612869858742
60,0.10224590450525284,0.618907630443573,91.52154541015625,1.4321075677871704,0.26904597878456116,0.4386677145957947,14616,,,,,,,,,,
61,,,,,,,14617,0.041096918284893036,0.018366126343607903,0.22684380412101746,,,,,,,
62,,,,,,,14619,,,,0.005111385602504015,-0.0035713622346520424,0.7161887288093567,0.6978774070739746,,,
63,,,,,,,14627,,,,,,,,0.0843951404094696,-0.0109402509406209,-0.06251630932092667
64,0.3205817639827728,1.132416009902954,91.19387817382812,1.430017113685608,0.2878202497959137,0.48357149958610535,14716,,,,,,,,,,
65,,,,,,,14717,0.03737829998135567,0.025861069560050964,0.2175629585981369,,,,,,,
66,,,,,,,14719,,,,0.009953542612493038,-0.005310974549502134,0.7142585515975952,0.6997895836830139,,,
67,,,,,,,14727,,,,,,,,0.19825373589992523,0.09273724257946014,-0.05496663600206375
68,0.375993013381958,1.937142014503479,90.87354278564453,1.4220964908599854,0.3034762442111969,0.5178151726722717,14816,,,,,,,,,,
69,,,,,,,14817,0.032240450382232666,0.016139332205057144,0.18336701393127441,,,,,,,
70,,,,,,,14819,,,,0.014527630060911179,-0.009848596528172493,0.7122325301170349,0.7017226815223694,,,
71,,,,,,,14827,,,,,,,,0.04035690054297447,0.044430289417505264,-0.05183597281575203
72,0.6066462993621826,2.391934633255005,90.66120910644531,1.440397024154663,0.3231494426727295,0.544731855392456,14916,,,,,,,,,,
73,,,,,,,14917,0.057466767728328705,0.005660467781126499,0.15296873450279236,,,,,,,
74,,,,,,,14919,,,,0.01922086626291275,-0.011561073362827301,0.7109348773956299,0.7028986215591431,,,
75,,,,,,,14927,,,,,,,,0.13745172321796417,-0.029516616836190224,-0.029135974124073982
76,0.08099047839641571,2.723316192626953,90.57017517089844,1.4619531631469727,0.34128543734550476,0.5638428926467896,15016,,,,,,,,,,
77,,,,,,,15017,0.08265744149684906,-0.012741425074636936,0.12960515916347504,,,,,,,
78,,,,,,,15019,,,,0.016978124156594276,-0.017220212146639824,0.7104388475418091,0.7033419013023376,,,
79,,,,,,,15027,,,,,,,,0.08374083787202835,-0.16414624452590942,0.006670708768069744
80,-0.4381495714187622,2.8904471397399902,90.61211395263672,1.494368553161621,0.34583431482315063,0.573692262172699,15116,,,,,,,,,,
81,,,,,,,15117,0.10670247673988342,-0.05136021226644516,0.10572386533021927,,,,,,,
82,,,,,,,15119,,,,0.014089241623878479,-0.020854465663433075,0.7106168866157532,0.7031274437904358,,,
83,,,,,,,15127,,,,,,,,-0.10148794203996658,-0.29952073097229004,0.02989184856414795
84,-1.7511632442474365,2.182237386703491,90.74375915527344,1.5067601203918457,0.34883981943130493,0.5821370482444763,15216,,,,,,,,,,
85,,,,,,,15217,0.0904487892985344,-0.08371657133102417,0.10823871195316315,,,,,,,
86,,,,,,,15219,,,,0.002413076115772128,-0.02423294633626938,0.7112876176834106,0.702477753162384,,,
87,,,,,,,15227,,,,,,,,-0.045862097293138504,-0.025566473603248596,0.01623929850757122
88,-1.9747371673583984,1.6186641454696655,90.84654998779297,1.485572338104248,0.34530436992645264,0.6006858348846436,15316,,,,,,,,,,
89,,,,,,,15317,0.026482922956347466,-0.10945545136928558,0.12088928371667862,,,,,,,
90,,,,,,,15319,,,,-0.0021646388340741396,-0.02160748653113842,0.7120377421379089,0.7018038630485535,,,
91,,,,,,,15327,,,,,,,,-0.07398978620767593,0.12821093201637268,0.012968611903488636
92,-1.3956196308135986,1.0834778547286987,90.95159912109375,1.4628667831420898,0.34198182821273804,0.6142702102661133,15416,,,,,,,,,,
93,,,,,,,15417,-0.029977858066558838,-0.12269669771194458,0.1322762668132782,,,,,,,
94,,,,,,,15419,,,,-0.0011131797218695283,-0.014273757115006447,0.7128170132637024,0.7012025117874146,,,
95,,,,,,,15427,,,,,,,,-0.0929621085524559,0.31864064931869507,0.0007232666830532253
96,0.13420414924621582,0.5984158515930176,91.0298843383789,1.4569541215896606,0.33082157373428345,0.6225566864013672,15516,,,,,,,,,,
97,,,,,,,15517,-0.04283379763364792,-0.13570627570152283,0.12189731746912003,,,,,,,
98,,,,,,,15519,,,,0.004934131167829037,-0.0021621070336550474,0.7134263515472412,0.7007080316543579,,,
99,,,,,,,15527,,,,,,,,-0.039295680820941925,0.17787578701972961,-0.018611477687954903
100,1.0870087146759033,0.07601913809776306,91.00582122802734,1.4700151681900024,0.3097984790802002,0.6164084672927856,15616,,,,,,,,,,
101,,,,,,,15617,-0.013671422377228737,-0.1522226333618164,0.09994933009147644,,,,,,,
102,,,,,,,15619,,,,0.006783566903322935,0.007081629708409309,0.7132691740989685,0.7008201479911804,,,
103,,,,,,,15627,,,,,,,,-0.09264732897281647,0.059724289923906326,-0.013189601711928844
104,1.2896231412887573,-0.33872145414352417,90.9717788696289,1.4538252353668213,0.30253124237060547,0.6126675009727478,15716,,,,,,,,,,
105,,,,,,,15717,-0.010621416382491589,-0.1404082328081131,0.08870653808116913,,,,,,,
106,,,,,,,15719,,,,0.005355856381356716,0.010446200147271156,0.7130363583564758,0.7010273933410645,,,
107,,,,,,,15727,,,,,,,,-0.09334905445575714,0.01954067312180996,-0.01299925334751606
108,1.3091011047363281,-0.6575158834457397,90.91454315185547,1.4183626174926758,0.2944715619087219,0.5988019108772278,15816,,,,,,,,,,
109,,,,,,,15817,-0.027521222829818726,-0.12571631371974945,0.0825992003083229,,,,,,,
110,,,,,,,15819,,,,0.0036260199267417192,0.01244987454265356,0.7126390337944031,0.701409637928009,,,
111,,,,,,,15827,,,,,,,,-0.11209909617900848,0.01773599162697792,0.004721417557448149
112,1.602320909500122,-0.8708121180534363,90.86622619628906,1.3973292112350464,0.28614354133605957,0.5995869636535645,15916,,,,,,,,,,
113,,,,,,,15917,-0.024633480235934258,-0.10697311162948608,0.09950225055217743,,,,,,,
114,,,,,,,15919,,,,0.004984517116099596,0.015360696241259575,0.7122837901115417,0.7017043828964233,,,
115,,,,,,,15927,,,,,,,,0.03285878151655197,0.05883984640240669,0.006337767466902733
116,2.103213310241699,-0.7163382172584534,90.8405990600586,1.371630311012268,0.26987847685813904,0.5935096144676208,16016,,,,,,,,,,
117,,,,,,,16017,-0.020523199811577797,-0.10164941102266312,0.10479237884283066,,,,,,,
118,,,,,,,16019,,,,0.008822043426334858,0.01803402788937092,0.7120622992515564,0.7018277645111084,,,
119,,,,,,,16027,,,,,,,,0.02389512024819851,0.12138281017541885,-0.003741048276424408
120,2.6960079669952393,-0.6563351154327393,90.85842895507812,1.370491623878479,0.25908154249191284,0.5765432715415955,16116,,,,,,,,,,
121,,,,,,,16117,0.02009112574160099,-0.09205083549022675,0.10431168973445892,,,,,,,
122,,,,,,,16119,,,,0.012535718269646168,0.021414795890450478,0.7120674848556519,0.7016710042953491,,,
123,,,,,,,16127,,,,,,,,-0.047157689929008484,0.10629533976316452,-0.01840026304125786
124,2.439502000808716,-0.7113993167877197,90.88384246826172,1.4114750623703003,0.242757186293602,0.5513116121292114,16216,,,,,,,,,,
125,,,,,,,16217,0.10920799523591995,-0.08912993967533112,0.0996168851852417,,,,,,,
126,,,,,,,16219,,,,0.009654599241912365,0.018667465075850487,0.712323009967804,0.7015356421470642,,,
127,,,,,,,16227,,,,,,,,0.004412038251757622,-0.2187395542860031,-0.0061333212070167065
128,0.9710641503334045,-0.9157267212867737,90.94255065917969,1.4628857374191284,0.23116596043109894,0.5564053654670715,16316,,,,,,,,,,
129,,,,,,,16317,0.1852405071258545,-0.0791313424706459,0.12804560363292694,,,,,,,
130,,,,,,,16319,,,,-0.0017846510745584965,0.009850113652646542,0.7128076553344727,0.7012866735458374,,,
131,,,,,,,16327,,,,,,,,-0.020222583785653114,-0.5516124367713928,-0.017520565539598465
132,-1.3009065389633179,-0.9862939119338989,90.91594696044922,1.4893842935562134,0.21268031001091003,0.561387300491333,16416,,,,,,,,,,
133,,,,,,,16417,0.1893843710422516,-0.07621759921312332,0.16325536370277405,,,,,,,
134,,,,,,,16419,,,,-0.015583276748657227,-0.003149190219119191,0.7127573490142822,0.7012290358543396,,,
135,,,,,,,16427,,,,,,,,-0.05613396689295769,-0.3872327506542206,0.006935195531696081
136,-3.080749988555908,-1.2121024131774902,90.90459442138672,1.500016212463379,0.19118596613407135,0.5701414942741394,16516,,,,,,,,,,
137,,,,,,,16517,0.14144237339496613,-0.07447153329849243,0.1853686273097992,,,,,,,
138,,,,,,,16519,,,,-0.02639172598719597,-0.01173897460103035,0.7125680446624756,0.7010067105293274,,,
139,,,,,,,16527,,,,,,,,-0.06707090884447098,-0.08948086202144623,0.008447643369436264
140,-3.3315718173980713,-1.5381642580032349,90.82801818847656,1.4977275133132935,0.1749115288257599,0.5819904804229736,16616,,,,,,,,,,
141,,,,,,,16617,0.07045772671699524,-0.06390246748924255,0.1725454330444336,,,,,,,
142,,,,,,,16619,,,,-0.02995974011719227,-0.011282823979854584,0.7121058106422424,0.7013404369354248,,,
143,,,,,,,16627,,,,,,,,-0.044596944004297256,0.06904280185699463,-0.024544231593608856
144,-2.4735260009765625,-1.7588515281677246,90.74718475341797,1.4866081476211548,0.164251908659935,0.5862508416175842,16716,,,,,,,,,,
145,,,,,,,16717,0.0009101119940169156,-0.04356284812092781,0.15476775169372559,,,,,,,
146,,,,,,,16719,,,,-0.025351379066705704,-0.003521391423419118,0.711650013923645,0.7020663022994995,,,
147,,,,,,,16727,,,,,,,,-0.025047536939382553,0.2647133767604828,-0.016577159985899925
148,-1.1284713745117188,-1.7023348808288574,90.68754577636719,1.4474517107009888,0.17324349284172058,0.5661566853523254,16816,,,,,,,,,,
149,,,,,,,16817,-0.07367192953824997,-0.0007140710367821157,0.1410319060087204,,,,,,,
150,,,,,,,16819,,,,-0.01622939668595791,0.004552808124572039,0.7113919854164124,0.7025918960571289,,,
151,,,,,,,16827,,,,,,,,0.04143977910280228,0.41106244921684265,-0.005548582877963781
152,0.8522115349769592,-1.1754556894302368,90.65924072265625,1.4181828498840332,0.18635007739067078,0.5746490359306335,16916,,,,,,,,,,
153,,,,,,,16917,-0.10059517621994019,0.03946287930011749,0.15509872138500214,,,,,,,
154,,,,,,,16919,,,,-0.0005686235963366926,0.012865856289863586,0.7110490202903748,0.7030230760574341,,,
155,,,,,,,16927,,,,,,,,0.14409540593624115,0.28389447927474976,0.011955608613789082
156,2.732527017593384,-0.11948104947805405,90.63677215576172,1.3990079164505005,0.19574974477291107,0.5826915502548218,17016,,,,,,,,,,
157,,,,,,,17017,-0.08368775248527527,0.05730843544006348,0.1653800904750824,,,,,,,
158,,,,,,,17019,,,,0.016024800017476082,0.01768629252910614,0.7108044624328613,0.7029832601547241,,,
159,,,,,,,17027,,,,,,,,0.1482085883617401,0.1793477088212967,-0.006798095069825649
160,3.4604785442352295,0.631561279296875,90.6025161743164,1.3927929401397705,0.20453083515167236,0.6047816872596741,17116,,,,,,,,,,
161,,,,,,,17117,-0.02925238013267517,0.05759362503886223,0.18444961309432983,,,,,,,
162,,,,,,,17119,,,,0.02515312470495701,0.017587019130587578,0.7105964422225952,0.7029287219047546,,,
163,,,,,,,17127,,,,,,,,0.08404207974672318,0.02367721125483513,0.028299756348133087
164,3.4748148918151855,1.311848521232605,90.63292694091797,1.3943712711334229,0.20861268043518066,0.63551926612854,17216,,,,,,,,,,
165,,,,,,,17217,0.03386816754937172,0.04129548743367195,0.1937112957239151,,,,,,,
166,,,,,,,17219,,,,0.029454156756401062,0.013509025797247887,0.7108715772628784,0.7025735378265381,,,
167,,,,,,,17227,,,,,,,,-0.025566333904862404,-0.18652087450027466,0.003818419761955738
168,2.4027204513549805,1.2287321090698242,90.6956558227539,1.4068927764892578,0.21310952305793762,0.6755015850067139,17316,,,,,,,,,,
169,,,,,,,17317,0.09291213005781174,0.02344730868935585,0.20201270282268524,,,,,,,
170,,,,,,,17319,,,,0.02236034907400608,0.007380025461316109,0.711346447467804,0.7024455666542053,,,
171,,,,,,,17327,,,,,,,,0.042357124388217926,-0.17078079283237457,-0.001174776698462665
172,1.1036128997802734,1.1097666025161743,90.74571990966797,1.4269981384277344,0.21695512533187866,0.7127748727798462,17416,,,,,,,,,,
173,,,,,,,17417,0.13557173311710358,0.006682896055281162,0.20004983246326447,,,,,,,
174,,,,,,,17419,,,,0.013657146133482456,5.088935358799063e-05,0.7116917967796326,0.7023575901985168,,,
175,,,,,,,17427,,,,,,,,-0.031860798597335815,-0.2324780821800232,-0.0071639674715697765
176,-0.38735830783843994,0.8003631234169006,90.75054931640625,1.444936752319336,0.2173425406217575,0.7460948824882507,17516,,,,,,,,,,
177,,,,,,,17517,0.1487610638141632,-0.008250518701970577,0.18334068357944489,,,,,,,
178,,,,,,,17519,,,,0.002596466336399317,-0.007312060333788395,0.7116842865943909,0.7024552226066589,,,
179,,,,,,,17527,,,,,,,,-0.047763776034116745,-0.29069238901138306,-0.008844893425703049
180,-1.60933518409729,0.49875709414482117,90.68700408935547,1.4630666971206665,0.2123180776834488,0.772231936454773,17616,,,,,,,,,,
181,,,,,,,17617,0.1366139054298401,-0.023371897637844086,0.14708201587200165,,,,,,,
182,,,,,,,17619,,,,-0.006774784065783024,-0.013048455119132996,0.7112128138542175,0.7028215527534485,,,
183,,,,,,,17627,,,,,,,,-0.10831065475940704,-0.12073048949241638,0.022270046174526215
184,-2.1490628719329834,0.055038925260305405,90.7470474243164,1.480125069618225,0.20639100670814514,0.7940637469291687,17716,,,,,,,,,,
185,,,,,,,17717,0.11139245331287384,-0.03184540569782257,0.11412300169467926,,,,,,,
186,,,,,,,17719,,,,-0.012831862084567547,-0.013683877885341644,0.7115692496299744,0.7023640275001526,,,
187,,,,,,,17727,,,,,,,,-0.1136254370212555,-0.035429105162620544,0.0095446752384305
188,-2.160172700881958,-0.38770967721939087,90.80509185791016,1.491969347000122,0.19967424869537354,0.8092522025108337,17816,,,,,,,,,,
189,,,,,,,17817,0.07738105207681656,-0.03392121195793152,0.09547378867864609,,,,,,,
190,,,,,,,17819,,,,-0.015643611550331116,-0.011047015897929668,0.7119707465171814,0.701946496963501,,,
191,,,,,,,17827,,,,,,,,-0.027667002752423286,0.0534820482134819,0.014957879669964314
192,-1.9242682456970215,-0.5835010409355164,90.83665466308594,1.4965345859527588,0.19225694239139557,0.8197406530380249,17916,,,,,,,,,,
193,,,,,,,17917,0.04066671058535576,-0.031515657901763916,0.08578622341156006,,,,,,,
194,,,,,,,17919,,,,-0.015412558801472187,-0.008385981433093548,0.7122002840042114,0.7017555832862854,,,
195,,,,,,,17927,,,,,,,,-0.06716066598892212,0.0841577872633934,0.00420003104954958
196,-1.3388478755950928,-0.7312926054000854,90.78656768798828,1.4941308498382568,0.18887436389923096,0.8304572701454163,18016,,,,,,,,,,
197,,,,,,,18017,0.006350421346724033,-0.020917464047670364,0.08678640425205231,,,,,,,
198,,,,,,,18019,,,,-0.01274742279201746,-0.0038365821819752455,0.7119323015213013,0.7021204233169556,,,
199,,,,,,,18027,,,,,,,,0.008803993463516235,0.12653429806232452,-0.002210467355325818
200,-0.6450684070587158,-0.7608929872512817,90.71118927001953,1.4902945756912231,0.1851557046175003,0.8394839763641357,18116,,,,,,,,,,
201,,,,,,,18117,-0.014887812547385693,-0.011602655984461308,0.07253100723028183,,,,,,,
202,,,,,,,18119,,,,-0.008679777383804321,0.0006608666735701263,0.7114803194999695,0.7026507258415222,,,
203,,,,,,,18127,,,,,,,,0.009155964478850365,0.13663816452026367,-0.013448642566800117
204,0.09566967934370041,-0.5401335954666138,90.6489028930664,1.4801781177520752,0.1829940378665924,0.845421552658081,18216,,,,,,,,,,
205,,,,,,,18217,-0.029246026650071144,-0.0020386662799865007,0.06973192095756531,,,,,,,
206,,,,,,,18219,,,,-0.0023360128980129957,0.004472953733056784,0.7111194133758545,0.7030516862869263,,,
207,,,,,,,18227,,,,,,,,-0.028683876618742943,0.1337181031703949,-0.0036388433072715998
208,0.6871592402458191,-0.516470730304718,90.58739471435547,1.4691652059555054,0.18645308911800385,0.8516992926597595,18316,,,,,,,,,,
209,,,,,,,18317,-0.03188835829496384,0.010830727405846119,0.0687250867486,,,,,,,
210,,,,,,,18319,,,,0.0011117934482172132,0.009749344550073147,0.710637092590332,0.7034888863563538,,,
211,,,,,,,18327,,,,,,,,-0.8193773031234741,0.7055665254592896,-0.008118970319628716
212,6.469259262084961,-7.765992164611816,90.8835220336914,1.4348362684249878,0.19583187997341156,0.8284835815429688,18416,,,,,,,,,,
213,,,,,,,18417,-0.01838904246687889,0.07374271005392075,0.04457450285553932,,,,,,,
214,,,,,,,18419,,,,-0.009434389881789684,0.09256160259246826,0.7065749168395996,0.7014935612678528,,,
215,,,,,,,18427,,,,,,,,-0.31639429926872253,0.25511664152145386,-0.07210507243871689
216,6.956861972808838,-7.328917980194092,90.47352600097656,1.40308678150177,0.20986557006835938,0.7958884239196777,18516,,,,,,,,,,
217,,,,,,,18517,0.05777767673134804,0.20858435332775116,-0.005999169312417507,,,,,,,
218,,,,,,,18519,,,,-0.001949642552062869,0.0891718864440918,0.7043570280075073,0.7042185068130493,,,
219,,,,,,,18527,,,,,,,,-0.2111431509256363,0.3684355914592743,-0.005992836318910122
220,7.910315036773682,-6.99663782119751,90.31647491455078,1.38203763961792,0.2236212193965912,0.760090172290802,18616,,,,,,,,,,
221,,,,,,,18617,0.15501262247562408,0.3241652548313141,-0.019455717876553535,,,,,,,
222,,,,,,,18619,,,,0.005384489428251982,0.0917418897151947,0.7030815482139587,0.7051445245742798,,,
223,,,,,,,18627,,,,,,,,0.5834539532661438,-0.3112255930900574,-0.008962554857134819
224,6.709422588348389,-4.112820148468018,90.02517700195312,1.3891918659210205,0.2760721445083618,0.7306565046310425,18716,,,,,,,,,,
225,,,,,,,18717,0.26841187477111816,0.4399188160896301,-0.0016184280393645167,,,,,,,
226,,,,,,,18719,,,,0.01600668951869011,0.0666847750544548,0.7041103839874268,0.7067698240280151,,,
227,,,,,,,18727,,,,,,,,0.37829503417015076,-0.1875239610671997,0.02512316219508648
228,5.191442012786865,-1.6125354766845703,89.76663970947266,1.4225144386291504,0.34088650345802307,0.7230117321014404,18816,,,,,,,,,,
229,,,,,,,18817,0.3818890154361725,0.5157994031906128,0.0480717197060585,,,,,,,
230,,,,,,,18819,,,,0.022116925567388535,0.04194290563464165,0.7044218182563782,0.7081945538520813,,,
231,,,,,,,18827,,,,,,,,0.5263326168060303,-0.4786149561405182,0.01381157897412777
232,2.715189218521118,1.6651729345321655,89.68840026855469,1.4990313053131104,0.3966432809829712,0.7492921352386475,18916,,,,,,,,,,
233,,,,,,,18917,0.4939192831516266,0.5226171016693115,0.12549033761024475,,,,,,,
234,,,,,,,18919,,,,0.02704070508480072,0.006405684631317854,0.7051524519920349,0.7085095643997192,,,
235,,,,,,,18927,,,,,,,,0.395161896944046,-0.5427486300468445,0.022503407672047615
236,-0.6506205201148987,3.9994328022003174,89.671875,1.581585168838501,0.4469205439090729,0.7737141847610474,19016,,,,,,,,,,
237,,,,,,,19017,0.5507956147193909,0.4730936288833618,0.1708185374736786,,,,,,,
238,,,,,,,19019,,,,0.02053028531372547,-0.028719527646899223,0.7045060396194458,0.7088179588317871,,,
239,,,,,,,19027,,,,,,,,0.20581424236297607,-0.44864794611930847,0.013879750855267048
240,-3.868729591369629,4.893405437469482,89.78680419921875,1.6651920080184937,0.4832797646522522,0.794359028339386,19116,,,,,,,,,,
241,,,,,,,19117,0.5499577522277832,0.38827717304229736,0.1701790988445282,,,,,,,
242,,,,,,,19119,,,,0.006172089837491512,-0.054001860320568085,0.7037344574928284,0.7083795070648193,,,
243,,,,,,,19127,,,,,,,,-0.002714166883379221,-0.4456252157688141,0.021895991638302803
244,-5.591972827911377,3.7265312671661377,89.75591278076172,1.7357711791992188,0.515265166759491,0.8109195828437805,19216,,,,,,,,,,
245,,,,,,,19217,0.48987463116645813,0.3073039650917053,0.15221816301345825,,,,,,,
246,,,,,,,19219,,,,-0.011687781661748886,-0.05738648399710655,0.7032749652862549,0.7085002064704895,,,
247,,,,,,,19227,,,,,,,,-0.3038829565048218,-0.232740119099617,0.039847105741500854
248,-6.887014865875244,2.6602814197540283,89.84241485595703,1.7910147905349731,0.5367328524589539,0.8201361298561096,19316,,,,,,,,,,
249,,,,,,,19317,0.39932623505592346,0.2489364594221115,0.10276635736227036,,,,,,,
250,,,,,,,19319,,,,-0.02623547613620758,-0.05883072316646576,0.7036944627761841,0.7075752019882202,,,
251,,,,,,,19327,,,,,,,,-0.26354050636291504,-0.0065534585155546665,0.03282240033149719
252,-6.918741226196289,1.3206913471221924,89.9113998413086,1.8268771171569824,0.5545594692230225,0.8229346871376038,19416,,,,,,,,,,
253,,,,,,,19417,0.28446900844573975,0.2096477448940277,0.07176066190004349,,,,,,,
254,,,,,,,19419,,,,-0.034664448350667953,-0.05081445351243019,0.7047443389892578,0.7067882418632507,,,
255,,,,,,,19427,,,,,,,,-0.0896020233631134,0.13313822448253632,0.03244771808385849
256,-5.888947486877441,0.3780002295970917,90.10922241210938,1.842599630355835,0.5702940225601196,0.8251604437828064,19516,,,,,,,,,,
257,,,,,,,19517,0.16476237773895264,0.18783190846443176,0.05600981041789055,,,,,,,
258,,,,,,,19519,,,,-0.03403974324464798,-0.03872101008892059,0.7067286968231201,0.70560222864151,,,
259,,,,,,,19527,,,,,,,,-0.08612866699695587,0.30304190516471863,0.0329517126083374
260,-3.129103660583496,-1.3398443460464478,90.2054672241211,1.840944766998291,0.5814443230628967,0.8252639770507812,19616,,,,,,,,,,
261,,,,,,,19617,0.0654994323849678,0.180796816945076,0.058356985449790955,,,,,,,
262,,,,,,,19619,,,,-0.0276684258133173,-0.011131965555250645,0.7082920074462891,0.7052878141403198,,,
263,,,,,,,19627,,,,,,,,-0.3936254680156708,0.43610548973083496,0.0571565255522728
264,-0.834300696849823,-1.9805060625076294,90.45523071289062,1.8264944553375244,0.5982277393341064,0.8268260359764099,19716,,,,,,,,,,
265,,,,,,,19717,0.007908690720796585,0.21112170815467834,0.07518820464611053,,,,,,,
266,,,,,,,19719,,,,-0.017503395676612854,0.006938230246305466,0.7098743319511414,0.704075276851654,,,
267,,,,,,,19727,,,,,,,,0.014044844545423985,0.486148476600647,0.040704287588596344
268,1.4411238431930542,-1.8559314012527466,90.5870361328125,1.8074250221252441,0.6212146878242493,0.83192378282547,19816,,,,,,,,,,
269,,,,,,,19817,-0.008230716921389103,0.2449571192264557,0.0866042897105217,,,,,,,
270,,,,,,,19819,,,,-0.0027024156879633665,0.02025119587779045,0.7104259729385376,0.7034739255905151,,,
271,,,,,,,19827,,,,,,,,0.08512870967388153,0.16025735437870026,0.01641078293323517
272,2.583721160888672,-1.1314218044281006,90.6227035522461,1.7905610799789429,0.6421761512756348,0.8408169746398926,19916,,,,,,,,,,
273,,,,,,,19917,0.005119952838867903,0.2658809721469879,0.08455735445022583,,,,,,,
274,,,,,,,19919,,,,0.008797356858849525,0.02288856729865074,0.7105662226676941,0.7032014727592468,,,
275,,,,,,,19927,,,,,,,,0.06938472390174866,0.13319431245326996,0.019456680864095688
276,3.5832669734954834,-1.0497151613235474,90.68672943115234,1.7755085229873657,0.6663594841957092,0.8507009744644165,20016,,,,,,,,,,
277,,,,,,,20017,0.035062260925769806,0.2792965769767761,0.0911671593785286,,,,,,,
278,,,,,,,20019,,,,0.015357212163507938,0.02860262617468834,0.7107481956481934,0.7026955485343933,,,
279,,,,,,,20027,,,,,,,,-0.07495938241481781,0.3041110634803772,0.0011435545748099685
280,4.353182315826416,-0.5453243255615234,90.69407653808594,1.7622880935668945,0.6891865134239197,0.8586642742156982,20116,,,,,,,,,,
281,,,,,,,20117,0.086582250893116,0.2920747697353363,0.08108129352331161,,,,,,,
282,,,,,,,20119,,,,0.02327703684568405,0.030291104689240456,0.7107288241386414,0.7024266719818115,,,
283,,,,,,,20127,,,,,,,,0.23156310617923737,0.04721163213253021,-0.011636564508080482
284,4.300074577331543,0.318559467792511,90.58052062988281,1.758582592010498,0.7109200358390808,0.8615953922271729,20216,,,,,,,,,,
285,,,,,,,20217,0.1446080505847931,0.28439682722091675,0.0639287605881691,,,,,,,
286,,,,,,,20219,,,,0.028335262089967728,0.024638265371322632,0.7102504968643188,0.7029454708099365,,,
287,,,,,,,20227,,,,,,,,0.06940986216068268,-0.1777341663837433,-0.01499276701360941
288,3.5915822982788086,0.15242435038089752,90.48485565185547,1.7599056959152222,0.7351217865943909,0.8647109270095825,20316,,,,,,,,,,
289,,,,,,,20317,0.19283249974250793,0.27348947525024414,0.05231613665819168,,,,,,,
290,,,,,,,20319,,,,0.022969618439674377,0.02123076096177101,0.7097720503807068,0.7037352323532104,,,
291,,,,,,,20327,,,,,,,,-0.2697969377040863,0.004535571672022343,-0.019661109894514084
292,3.019225597381592,-0.3720764219760895,90.42450714111328,1.763381004333496,0.7576708793640137,0.8660805225372314,20416,,,,,,,,,,
293,,,,,,,20417,0.23242168128490448,0.2738294005393982,0.05646832287311554,,,,,,,
294,,,,,,,20419,,,,0.016211170703172684,0.020886369049549103,0.7094100117683411,0.7042984962463379,,,
295,,,,,,,20427,,,,,,,,0.13782481849193573,-0.14722011983394623,-0.029299156740307808
296,2.096057415008545,-0.273923397064209,90.26305389404297,1.773809552192688,0.7836549282073975,0.8692243695259094,20516,,,,,,,,,,
297,,,,,,,20517,0.26119574904441833,0.27571386098861694,0.06210010126233101,,,,,,,
298,,,,,,,20519,,,,0.011166699230670929,0.014553673565387726,0.7085744738578796,0.7053961753845215,,,
299,,,,,,,20527,,,,,,,,0.0405561588704586,-0.1342238038778305,-0.00675891013815999
300,1.3013101816177368,0.3271509110927582,90.1395034790039,1.7849652767181396,0.8068302273750305,0.8744198083877563,20616,,,,,,,,,,
301,,,,,,,20617,0.2732985317707062,0.2725202441215515,0.05757226049900055,,,,,,,
302,,,,,,,20619,,,,0.010004081763327122,0.005940725095570087,0.7079383134841919,0.7061769962310791,,,
303,,,,,,,20627,,,,,,,,0.12674541771411896,-0.21270804107189178,-0.022503113374114037
304,0.7795619368553162,0.01024599839001894,90.03956604003906,1.7986760139465332,0.8317234516143799,0.8806696534156799,20716,,,,,,,,,,
305,,,,,,,20717,0.27291619777679443,0.2633030116558075,0.05369773879647255,,,,,,,
306,,,,,,,20719,,,,0.004838160239160061,0.004672551527619362,0.7073312997817993,0.7068488001823425,,,
307,,,,,,,20727,,,,,,,,-0.2087465077638626,0.0934954360127449,-0.007050044368952513
308,0.7188810706138611,-0.31347590684890747,89.96665954589844,1.81044602394104,0.8629480600357056,0.8860177397727966,20816,,,,,,,,,,
309,,,,,,,20817,0.2672596275806427,0.27389204502105713,0.044267021119594574,,,,,,,
310,,,,,,,20819,,,,0.002467688638716936,0.006287484895437956,0.706868052482605,0.707311749458313,,,
311,,,,,,,20827,,,,,,,,0.06592069566249847,-0.08061517030000687,-0.009767692536115646
312,0.5746869444847107,-0.051619913429021835,89.93265533447266,1.825087547302246,0.8958316445350647,0.8929122686386108,20916,,,,,,,,,,
313,,,,,,,20917,0.26626428961753845,0.28504496812820435,0.04955640435218811,,,,,,,
314,,,,,,,20919,,,,0.0031914375722408295,0.0037732606288045645,0.7066758275032043,0.7075187563896179,,,
315,,,,,,,20927,,,,,,,,0.14924921095371246,-0.00821719877421856,-0.015925241634249687
316,0.5589257478713989,0.32668712735176086,89.89649963378906,1.8386945724487305,0.9313439130783081,0.9019668102264404,21016,,,,,,,,,,
317,,,,,,,21017,0.2606154978275299,0.288496732711792,0.06581871956586838,,,,,,,
318,,,,,,,21019,,,,0.005427339114248753,0.001336444984190166,0.7064617276191711,0.7077276706695557,,,
319,,,,,,,21027,,,,,,,,-0.14924274384975433,0.18408377468585968,-0.02012934535741806
320,0.8227205276489258,0.1076246052980423,89.88531494140625,1.8469728231430054,0.9668290019035339,0.909682035446167,21116,,,,,,,,,,
321,,,,,,,21117,0.25510093569755554,0.2958031892776489,0.06738130003213882,,,,,,,
322,,,,,,,21119,,,,0.0057161650620400906,0.0043368092738091946,0.7063817977905273,0.7077932357788086,,,
323,,,,,,,21127,,,,,,,,0.26057732105255127,-0.05470537021756172,0.008371671661734581
324,0.8545469641685486,0.9664158821105957,89.90913391113281,1.860388159751892,0.9982335567474365,0.915212094783783,21216,,,,,,,,,,
325,,,,,,,21217,0.2545720934867859,0.2877606451511383,0.07124938815832138,,,,,,,
326,,,,,,,21219,,,,0.0112052783370018,-0.0007730493671260774,0.7065426111221313,0.707580029964447,,,
327,,,,,,,21227,,,,,,,,0.021227387711405754,-0.0038937083445489407,0.03484150022268295
328,0.6552543044090271,1.5250415802001953,89.98729705810547,1.8784980773925781,1.0280169248580933,0.9191471934318542,21316,,,,,,,,,,
329,,,,,,,21317,0.2597068250179291,0.2713392674922943,0.042396627366542816,,,,,,,
330,,,,,,,21319,,,,0.013420483097434044,-0.00544719398021698,0.7070049047470093,0.707058846950531,,,
331,,,,,,,21327,,,,,,,,0.07807297259569168,-0.05096973106265068,0.03234764188528061
332,0.49190154671669006,1.5861444473266602,90.13618469238281,1.8961735963821411,1.0529903173446655,0.9201334118843079,21416,,,,,,,,,,
333,,,,,,,21417,0.25983479619026184,0.24165067076683044,0.03434699773788452,,,,,,,
334,,,,,,,21419,,,,0.012802817858755589,-0.006804382428526878,0.7079115509986877,0.7061508893966675,,,
335,,,,,,,21427,,,,,,,,-0.2966277003288269,0.046814046800136566,0.00663039181381464
336,0.45851120352745056,0.4935227632522583,90.20233154296875,1.9163552522659302,1.0758545398712158,0.9154073596000671,21516,,,,,,,,,,
337,,,,,,,21517,0.2625531256198883,0.22499148547649384,0.0316820964217186,,,,,,,
338,,,,,,,21519,,,,0.0058447932824492455,-0.00027995050186291337,0.7083512544631958,0.7058344483375549,,,
339,,,,,,,21527,,,,,,,,0.05254996940493584,-0.06606626510620117,0.006623076740652323
340,0.17408984899520874,0.4214840829372406,90.25762176513672,1.931663990020752,1.0931384563446045,0.9075454473495483,21616,,,,,,,,,,
341,,,,,,,21617,0.256863534450531,0.2101212590932846,0.020847823470830917,,,,,,,
342,,,,,,,21619,,,,0.003648218000307679,-0.0015926880296319723,0.70868980884552,0.7055075168609619,,,
343,,,,,,,21627,,,,,,,,-0.07655581086874008,-0.08475533127784729,-0.009441169910132885
344,0.03749052807688713,0.26570987701416016,90.17681121826172,1.9449832439422607,1.110603928565979,0.9000319838523865,21716,,,,,,,,,,
345,,,,,,,21717,0.24480867385864258,0.20122550427913666,0.014411995187401772,,,,,,,
346,,,,,,,21719,,,,0.001847475185059011,-0.0014689037343487144,0.7081925868988037,0.7060139179229736,,,
347,,,,,,,21727,,,,,,,,-0.009307816624641418,-0.0010406270157545805,0.005575008690357208
348,-0.001103414106182754,0.04524797201156616,90.128173828125,1.9606941938400269,1.1286529302597046,0.8917685151100159,21816,,,,,,,,,,
349,,,,,,,21817,0.23611697554588318,0.19524812698364258,0.009285008534789085,,,,,,,
350,,,,,,,21819,,,,0.00024315631890203804,-0.00035990975447930396,0.7078936696052551,0.7063175439834595,,,
351,,,,,,,21827,,,,,,,,-0.23713283240795135,0.055970557034015656,0.008748091757297516
352,0.26249369978904724,-0.7283757328987122,90.10022735595703,1.9715685844421387,1.1461687088012695,0.8846135139465332,21916,,,,,,,,,,
353,,,,,,,21917,0.22568820416927338,0.20057599246501923,0.03026190958917141,,,,,,,
354,,,,,,,21919,,,,-0.002905729692429304,0.006047768052667379,0.7076955437660217,0.7064842581748962,,,
355,,,,,,,21927,,,,,,,,0.06624093651771545,-0.006599366664886475,-0.004149504471570253
356,0.32800188660621643,-0.5523125529289246,89.98312377929688,1.9941210746765137,1.1778388023376465,0.8846978545188904,22016,,,,,,,,,,
357,,,,,,,22017,0.23021484911441803,0.2248530238866806,0.03634919598698616,,,,,,,
358,,,,,,,22019,,,,-0.0014059942914173007,0.0053758579306304455,0.7069792151451111,0.7072110772132874,,,
359,,,,,,,22027,,,,,,,,0.04846733808517456,-0.05130061134696007,-0.004011914599686861
360,0.043843094259500504,0.061003122478723526,89.98138427734375,2.0266811847686768,1.20875883102417,0.8848998546600342,22116,,,,,,,,,,
361,,,,,,,22117,0.24355706572532654,0.24051453173160553,0.05143611878156662,,,,,,,
362,,,,,,,22119,,,,0.0006469543441198766,-0.00010599462257232517,0.7069911956787109,0.7072206139564514,,,
363,,,,,,,22127,,,,,,,,-0.0597844272851944,-0.06893105804920197,0.00216286932118237
364,-0.39526015520095825,-0.356854110956192,89.94032287597656,2.066335439682007,1.230835199356079,0.8772944808006287,22216,,,,,,,,,,
365,,,,,,,22217,0.25841474533081055,0.24075180292129517,0.03982715308666229,,,,,,,
366,,,,,,,22219,,,,-0.004666190128773451,-0.0002964563318528235,0.7067357301712036,0.707460880279541,,,
367,,,,,,,22227,,,,,,,,0.2496420294046402,-0.13847503066062927,-0.006131862290203571
368,-1.2927759885787964,0.5371821522712708,89.93939208984375,2.098437786102295,1.2674387693405151,0.874902606010437,22316,,,,,,,,,,
369,,,,,,,22317,0.2523733675479889,0.25289803743362427,0.03936908394098282,,,,,,,
370,,,,,,,22319,,,,-0.0046949866227805614,-0.01135433278977871,0.7066394090652466,0.7074657082557678,,,
371,,,,,,,22327,,,,,,,,0.058129485696554184,-0.16167238354682922,0.0022242756094783545
372,-1.9245245456695557,1.1415687799453735,89.9576187133789,2.1325900554656982,1.295121192932129,0.8679546117782593,22416,,,,,,,,,,
373,,,,,,,22417,0.23486609756946564,0.24374522268772125,0.04409175366163254,,,,,,,
374,,,,,,,22419,,,,-0.004865346010774374,-0.018982259556651115,0.7065887451171875,0.7073516249656677,,,
375,,,,,,,22427,,,,,,,,0.14328576624393463,-0.17416156828403473,0.00661558099091053
376,-2.608219861984253,1.632572054862976,90.05839538574219,2.162153959274292,1.3191460371017456,0.8573164343833923,22516,,,,,,,,,,
377,,,,,,,22517,0.20406924188137054,0.21963079273700714,0.03653954714536667,,,,,,,
378,,,,,,,22519,,,,-0.006032242905348539,-0.02622816525399685,0.706979513168335,0.7067203521728516,,,
379,,,,,,,22527,,,,,,,,-0.1331101655960083,0.01272743009030819,0.0015294656623154879
380,-2.77052903175354,0.7496573328971863,90.04205322265625,2.1833691596984863,1.3415330648422241,0.8494638800621033,22616,,,,,,,,,,
381,,,,,,,22617,0.16197936236858368,0.2003009170293808,0.03866717964410782,,,,,,,
382,,,,,,,22619,,,,-0.012492631562054157,-0.021800003945827484,0.7070287466049194,0.7067368626594543,,,
383,,,,,,,22627,,,,,,,,-0.0009042613673955202,0.004931219853460789,0.03442904353141785
384,-2.3765909671783447,0.8115869760513306,90.14985656738281,2.194645881652832,1.366088628768921,0.8491400480270386,22716,,,,,,,,,,
385,,,,,,,22717,0.11342961341142654,0.19284451007843018,0.05550280958414078,,,,,,,
386,,,,,,,22719,,,,-0.009661342017352581,-0.019758397713303566,0.7077538967132568,0.706115186214447,,,
387,,,,,,,22727,,,,,,,,-0.05017539858818054,0.05055928975343704,0.007466346491128206
388,-1.8821702003479004,0.7075918316841125,90.28646850585938,2.199763059616089,1.3945451974868774,0.8519487977027893,22816,,,,,,,,,,
389,,,,,,,22817,0.07050172984600067,0.19220244884490967,0.06020387262105942,,,,,,,
390,,,,,,,22819,,,,-0.00724258366972208,-0.016084376722574234,0.7086887955665588,0.7052992582321167,,,
391,,,,,,,22827,,,,,,,,-0.07127384841442108,0.15747511386871338,0.015032811090350151
392,-1.1872634887695312,-0.14301587641239166,90.3104248046875,2.202619791030884,1.4204868078231812,0.8562663793563843,22916,,,,,,,,,,
393,,,,,,,22917,0.04191485419869423,0.1940644383430481,0.05838296562433243,,,,,,,
394,,,,,,,22919,,,,-0.008214100264012814,-0.006524127442389727,0.7089890241622925,0.7051400542259216,,,
395,,,,,,,22927,,,,,,,,0.0680512934923172,0.09698780626058578,0.008932015858590603
396,-0.3017076253890991,0.4663292169570923,90.32242584228516,2.2073051929473877,1.45267653465271,0.8611006140708923,23016,,,,,,,,,,
397,,,,,,,23017,0.02966192178428173,0.20758698880672455,0.05947151780128479,,,,,,,
398,,,,,,,23019,,,,0.0009978238958865404,-0.004816535394638777,0.7090773582458496,0.705112099647522,,,
399,,,,,,,23027,,,,,,,,0.03830627724528313,0.066574327647686,-0.016990870237350464
400,-0.01683242991566658,0.8343007564544678,90.27574157714844,2.2236695289611816,1.4687350988388062,0.8589909076690674,23116,,,,,,,,,,
401,,,,,,,23117,0.041512489318847656,0.19190876185894012,0.053758662194013596,,,,,,,
402,,,,,,,23119,,,,0.005024382378906012,-0.005322688724845648,0.7087870240211487,0.7053831219673157,,,
403,,,,,,,23127,,,,,,,,0.07769027352333069,0.061368342489004135,0.027613027021288872
404,0.10891103744506836,1.3814332485198975,90.27253723144531,2.236456871032715,1.4930343627929688,0.864679753780365,23216,,,,,,,,,,
405,,,,,,,23217,0.052761293947696686,0.18018274009227753,0.06234448403120041,,,,,,,
406,,,,,,,23219,,,,0.009180289693176746,-0.007918394170701504,0.7087433338165283,0.7053608894348145,,,
407,,,,,,,23227,,,,,,,,-0.16145367920398712,-0.16307607293128967,-0.029579130932688713
408,-0.4360632598400116,0.35038304328918457,90.14960479736328,2.2484395503997803,1.5171372890472412,0.8730510473251343,23316,,,,,,,,,,
409,,,,,,,23317,0.05612988770008087,0.1735343635082245,0.07968302071094513,,,,,,,
410,,,,,,,23319,,,,-0.0005573134985752404,-0.004942914005368948,0.7080131769180298,0.7061802744865417,,,
411,,,,,,,23327,,,,,,,,0.06420357525348663,-0.061675041913986206,0.0048029194585978985
412,-0.7930647730827332,0.6437060832977295,90.09053802490234,2.2544212341308594,1.5426784753799438,0.8872054815292358,23416,,,,,,,,,,
413,,,,,,,23417,0.04665176197886467,0.17535997927188873,0.08379625529050827,,,,,,,
414,,,,,,,23419,,,,-0.0009475487750023603,-0.008950968272984028,0.7076098322868347,0.7065446376800537,,,
415,,,,,,,23427,,,,,,,,-0.03392050042748451,-0.04654131829738617,-0.01692226342856884
416,-1.1705502271652222,0.6941841244697571,90.0031509399414,2.263335704803467,1.564099907875061,0.8989969491958618,23516,,,,,,,,,,
417,,,,,,,23517,0.035744741559028625,0.16966120898723602,0.07598362118005753,,,,,,,
418,,,,,,,23519,,,,-0.0029789642430841923,-0.011608725413680077,0.7070327401161194,0.7070778608322144,,,
419,,,,,,,23527,,,,,,,,-0.09199339896440506,-0.03576163947582245,0.006729981862008572
420,-1.218536376953125,0.06734616309404373,90.0255126953125,2.2731573581695557,1.5812064409255981,0.9062848687171936,23616,,,,,,,,,,
421,,,,,,,23617,0.02302958071231842,0.16356581449508667,0.057919833809137344,,,,,,,
422,,,,,,,23619,,,,-0.007135199382901192,-0.008022280409932137,0.707219660282135,0.7069109082221985,,,
423,,,,,,,23627,,,,,,,,0.06193775683641434,-0.012450680136680603,0.0044761719182133675
424,-1.4342550039291382,0.058192189782857895,90.01284790039062,2.2752573490142822,1.6059526205062866,0.917364239692688,23716,,,,,,,,,,
425,,,,,,,23717,0.0011820077197626233,0.17159506678581238,0.06815575063228607,,,,,,,
426,,,,,,,23719,,,,-0.00852882768958807,-0.00931080523878336,0.7071260213851929,0.7069734334945679,,,
427,,,,,,,23727,,,,,,,,-0.004781374707818031,0.061472151428461075,0.01242265198379755
428,-1.106451392173767,0.5550466775894165,89.98579406738281,2.2783288955688477,1.6230684518814087,0.9231896996498108,23816,,,,,,,,,,
429,,,,,,,23817,-0.016031555831432343,0.16825468838214874,0.053933508694171906,,,,,,,
430,,,,,,,23819,,,,-0.0034450124949216843,-0.010359013453125954,0.70694500207901,0.7071828842163086,,,
431,,,,,,,23827,,,,,,,,-0.027149857953190804,-0.014444243162870407,-0.010380561463534832
432,-0.8382378816604614,0.7292411923408508,89.99980163574219,2.278012990951538,1.6438260078430176,0.9305011034011841,23916,,,,,,,,,,
433,,,,,,,23917,-0.03155447542667389,0.16423408687114716,0.048380836844444275,,,,,,,
434,,,,,,,23919,,,,-0.0007111216546036303,-0.009773061610758305,0.7070397734642029,0.707104504108429,,,
435,,,,,,,23927,,,,,,,,0.05516136810183525,0.08492417633533478,0.014656438492238522
436,-0.764504611492157,0.18290714919567108,90.03854370117188,2.2686853408813477,1.6632144451141357,0.9336515665054321,24016,,,,,,,,,,
437,,,,,,,24017,-0.04991483315825462,0.15766717493534088,0.03867068141698837,,,,,,,
438,,,,,,,24019,,,,-0.003618834540247917,-0.005932603031396866,0.7073209285736084,0.7068570256233215,,,
439,,,,,,,24027,,,,,,,,-0.06620106846094131,0.08237657696008682,-0.004440612625330687
440,-0.4210455119609833,0.19671061635017395,90.04966735839844,2.258401870727539,1.67121422290802,0.9282938838005066,24116,,,,,,,,,,
441,,,,,,,24117,-0.0643395334482193,0.145964115858078,0.027270572260022163,,,,,,,
442,,,,,,,24119,,,,-0.0014165820321068168,-0.003904301906004548,0.7074037790298462,0.7067961096763611,,,
443,,,,,,,24127,,,,,,,,-0.02921508625149727,0.07113700360059738,0.0025110705755650997
444,0.12511701881885529,0.07917103171348572,90.0027084350586,2.2449753284454346,1.6728999614715576,0.9172278642654419,24216,,,,,,,,,,
445,,,,,,,24217,-0.07347600162029266,0.1278170943260193,0.017038309946656227,,,,,,,
446,,,,,,,24219,,,,0.0012263753451406956,0.00019126219558529556,0.7071244120597839,0.7070866227149963,,,
447,,,,,,,24227,,,,,,,,-0.15896476805210114,-0.017411306500434875,-0.009905780665576458
448,-0.06169921159744263,-1.3382147550582886,89.94368743896484,2.240959882736206,1.6776721477508545,0.9083190560340881,24316,,,,,,,,,,
449,,,,,,,24317,-0.06868916004896164,0.12576772272586823,0.007246379740536213,,,,,,,
450,,,,,,,24319,,,,-0.008667570538818836,0.007791565265506506,0.7067161202430725,0.7073997259140015,,,
451,,,,,,,24327,,,,,,,,-0.05644509196281433,0.07571335881948471,-0.0015041888691484928
452,0.3542521595954895,-1.44089674949646,89.90657806396484,2.2445240020751953,1.6929532289505005,0.9053199291229248,24416,,,,,,,,,,
453,,,,,,,24417,-0.05468694493174553,0.15162448585033417,0.010521032847464085,,,,,,,
454,,,,,,,24419,,,,-0.006732983980327845,0.010982883162796497,0.7064440250396729,0.7076502442359924,,,
455,,,,,,,24427,,,,,,,,-0.04092314466834068,-0.0859706699848175,-0.008615930564701557
456,0.09775377064943314,-1.4231599569320679,89.88408660888672,2.253927707672119,1.710447072982788,0.9038729071617126,24516,,,,,,,,,,
457,,,,,,,24517,-0.03662822023034096,0.1796034574508667,0.026289932429790497,,,,,,,
458,,,,,,,24519,,,,-0.008206927217543125,0.009290102869272232,0.7063290476799011,0.707773745059967,,,
459,,,,,,,24527,,,,,,,,0.13276450335979462,0.02877972088754177,0.006016558967530727
460,-0.18787746131420135,-0.5503388047218323,89.83090209960938,2.261798858642578,1.736064076423645,0.9075254201889038,24616,,,,,,,,,,
461,,,,,,,24617,-0.023339642211794853,0.20572496950626373,0.041473086923360825,,,,,,,
462,,,,,,,24619,,,,-0.004596320912241936,0.0021218061447143555,0.7060583829879761,0.708134114742279,,,
463,,,,,,,24627,,,,,,,,0.06051545590162277,-0.16612502932548523,-0.0035569523461163044
464,-1.227846622467041,-1.047777533531189,89.7627182006836,2.2624616622924805,1.7681572437286377,0.9155408143997192,24716,,,,,,,,,,
465,,,,,,,24717,-0.03048126772046089,0.23010016977787018,0.052932191640138626,,,,,,,
466,,,,,,,24719,,,,-0.014082532376050949,-0.001190843409858644,0.7056391835212708,0.7084289789199829,,,
467,,,,,,,24727,,,,,,,,0.08169260621070862,-0.09660584479570389,-0.0032841486390680075
468,-1.4854516983032227,0.12350690364837646,89.73458099365234,2.260650396347046,1.803305983543396,0.9280962944030762,24816,,,,,,,,,,
469,,,,,,,24817,-0.05205380171537399,0.25490984320640564,0.06810228526592255,,,,,,,
470,,,,,,,24819,,,,-0.008426877669990063,-0.009908528067171574,0.705396831035614,0.7086918354034424,,,
471,,,,,,,24827,,,,,,,,0.040909845381975174,-0.07852496951818466,-0.009559374302625656
472,-1.4875683784484863,0.776770293712616,89.70034790039062,2.253011703491211,1.8412013053894043,0.9454522132873535,24916,,,,,,,,,,
473,,,,,,,24917,-0.08148819953203201,0.26622703671455383,0.07908796519041061,,,,,,,
474,,,,,,,24919,,,,-0.0044625322334468365,-0.014076151885092258,0.7051165699958801,0.7089362740516663,,,
475,,,,,,,24927,,,,,,,,0.26162606477737427,0.129233255982399,0.008445576764643192
476,-1.5024043321609497,1.1415079832077026,89.748779296875,2.240598678588867,1.8745317459106445,0.9554310441017151,25016,,,,,,,,,,
477,,,,,,,25017,-0.10776518285274506,0.25578150153160095,0.06477243453264236,,,,,,,
478,,,,,,,25019,,,,-0.002299877814948559,-0.01641874387860298,0.7053667902946472,0.7086471915245056,,,
479,,,,,,,25027,,,,,,,,-0.11195065826177597,0.05519197881221771,0.015317684970796108
480,-0.9258508682250977,1.6451911926269531,89.74757385253906,2.2310335636138916,1.90224027633667,0.9606491923332214,25116,,,,,,,,,,
481,,,,,,,25117,-0.1265270859003067,0.23938250541687012,0.05177813023328781,,,,,,,
482,,,,,,,25119,,,,0.00436185859143734,-0.016000283882021904,0.7053710222244263,0.7086429595947266,,,
483,,,,,,,25127,,,,,,,,-0.03751794993877411,-0.033797383308410645,0.0006483675097115338
484,-0.5265713334083557,1.480636477470398,89.736572265625,2.216522693634033,1.9318304061889648,0.9673861861228943,25216,,,,,,,,,,
485,,,,,,,25217,-0.14240965247154236,0.22236596047878265,0.03530886396765709,,,,,,,
486,,,,,,,25219,,,,0.005824652500450611,-0.012503617443144321,0.7053728699684143,0.7087007761001587,,,
487,,,,,,,25227,,,,,,,,0.08614365756511688,0.20615717768669128,0.002848230302333832
488,0.2731834650039673,2.0603976249694824,89.71102905273438,2.197861671447754,1.9586677551269531,0.9738625884056091,25316,,,,,,,,,,
489,,,,,,,25317,-0.14784613251686096,0.20001207292079926,0.025090184062719345,,,,,,,
490,,,,,,,25319,,,,0.014333418570458889,-0.011182290501892567,0.7052388191223145,0.7087353467941284,,,
491,,,,,,,25327,,,,,,,,-0.05437713861465454,0.022177839651703835,-0.00888772401958704
492,0.045394979417324066,0.8527682423591614,89.66868591308594,2.1820812225341797,1.9796959161758423,0.9743047952651978,25416,,,,,,,,,,
493,,,,,,,25417,-0.14502985775470734,0.17474812269210815,0.00980348326265812,,,,,,,
494,,,,,,,25419,,,,0.005495905410498381,-0.005099994130432606,0.7050446271896362,0.7091219425201416,,,
495,,,,,,,25427,,,,,,,,-0.18693853914737701,-0.048204172402620316,0.004350604955106974
496,0.42639923095703125,0.6500353217124939,89.71034240722656,2.1680715084075928,1.9968149662017822,0.9750600457191467,25516,,,,,,,,,,
497,,,,,,,25517,-0.142435684800148,0.16438619792461395,0.016312316060066223,,,,,,,
498,,,,,,,25519,,,,0.006615329999476671,-0.0014725079527124763,0.7053176760673523,0.7088575959205627,,,
499,,,,,,,25527,,,,,,,,-0.07997701317071915,-0.026677105575799942,0.0018591796979308128
500,0.3792653977870941,0.2550615668296814,89.7530746459961,2.1628780364990234,2.0122385025024414,0.977827787399292,25616,,,,,,,,,,
501,,,,,,,25617,-0.12733690440654755,0.1561681628227234,0.020502125844359398,,,,,,,
502,,,,,,,25619,,,,0.003883588593453169,0.0006529439706355333,0.7055832147598267,0.7086147665977478,,,
503,,,,,,,25627,,,,,,,,0.12006664276123047,0.10185414552688599,0.0012964267516508698
504,0.47022536396980286,0.6046107411384583,89.72876739501953,2.1557278633117676,2.0238261222839355,0.9784857034683228,25716,,,,,,,,,,
505,,,,,,,25717,-0.11292718350887299,0.14292292296886444,0.020530998706817627,,,,,,,
506,,,,,,,25719,,,,0.006597496103495359,-0.0009525726200081408,0.7054318785667419,0.708745002746582,,,
507,,,,,,,25727,,,,,,,,-0.10665395110845566,-0.07461372762918472,-0.008274300023913383
508,-0.10332686454057693,-0.43902361392974854,89.8040542602539,2.151611566543579,2.0346715450286865,0.9786118865013123,25816,,,,,,,,,,
509,,,,,,,25817,-0.10073607414960861,0.13488522171974182,0.02320142276585102,,,,,,,
510,,,,,,,25819,,,,-0.0033780112862586975,0.0019626268185675144,0.7058934569358826,0.7083057761192322,,,
511,,,,,,,25827,,,,,,,,-0.1529805213212967,-0.15384477376937866,0.010711589828133583
512,-0.6375108957290649,-0.838036298751831,89.82524108886719,2.148967981338501,2.0439932346343994,0.9757582545280457,25916,,,,,,,,,,
513,,,,,,,25917,-0.09927186369895935,0.1407913863658905,0.018033480271697044,,,,,,,
514,,,,,,,25919,,,,-0.009134553372859955,0.0011471932521089911,0.7060249447822571,0.7081257700920105,,,
515,,,,,,,25927,,,,,,,,-0.09005056321620941,-0.07696167379617691,0.007081467192620039
516,-0.8595709800720215,-0.8351839780807495,89.80498504638672,2.142561435699463,2.0549559593200684,0.9735134840011597,26016,,,,,,,,,,
517,,,,,,,26017,-0.10772770643234253,0.15167580544948578,0.0074410149827599525,,,,,,,
518,,,,,,,26019,,,,-0.010487522929906845,-0.00023189572675619274,0.7058997750282288,0.708232581615448,,,
519,,,,,,,26027,,,,,,,,0.009144390001893044,-0.03996829316020012,-0.0110033443197608
520,-1.4981447458267212,-1.6536518335342407,89.83012390136719,2.136934995651245,2.066150426864624,0.9692844748497009,26116,,,,,,,,,,
521,,,,,,,26117,-0.1193011924624443,0.16297252476215363,0.011801098473370075,,,,,,,
522,,,,,,,26119,,,,-0.01947716623544693,0.0008800353389233351,0.7060535550117493,0.7078885436058044,,,
523,,,,,,,26127,,,,,,,,-0.16703137755393982,-0.12430290132761002,0.009737076237797737
524,-1.5611391067504883,-1.608481764793396,89.87155151367188,2.130401849746704,2.076639175415039,0.9628150463104248,26216,,,,,,,,,,
525,,,,,,,26217,-0.13994735479354858,0.18443094193935394,0.01707600988447666,,,,,,,
526,,,,,,,26219,,,,-0.01955585367977619,0.00031407695496454835,0.7063132524490356,0.7076277136802673,,,
527,,,,,,,26227,,,,,,,,0.0591048002243042,0.036178287118673325,0.02235749177634716
528,-1.296384334564209,-1.118653655052185,89.95243072509766,2.123976230621338,2.0907797813415527,0.9555655121803284,26316,,,,,,,,,,
529,,,,,,,26317,-0.15556566417217255,0.20209385454654694,0.008329559117555618,,,,,,,
530,,,,,,,26319,,,,-0.014901754446327686,-0.001090517151169479,0.7068117260932922,0.707242488861084,,,
531,,,,,,,26327,,,,,,,,0.11889850348234177,0.0741204246878624,-0.010484177619218826
532,-0.9806230068206787,-0.6801884174346924,89.95209503173828,2.116900682449341,2.1087636947631836,0.9529203176498413,26416,,,,,,,,,,
533,,,,,,,26417,-0.16561704874038696,0.21366971731185913,0.02119847945868969,,,,,,,
534,,,,,,,26419,,,,-0.01024873461574316,-0.001849587308242917,0.7068080902099609,0.7073273062705994,,,
535,,,,,,,26427,,,,,,,,0.13465934991836548,0.11213325709104538,0.027523797005414963
536,-0.8593015670776367,-0.4550657570362091,90.02204895019531,2.1014204025268555,2.121049642562866,0.9427502155303955,26516,,,,,,,,,,
537,,,,,,,26517,-0.17632687091827393,0.20868435502052307,0.023686178028583527,,,,,,,
538,,,,,,,26519,,,,-0.008109867572784424,-0.002495954278856516,0.7072377800941467,0.7069234848022461,,,
539,,,,,,,26527,,,,,,,,-0.21816423535346985,-0.1782061606645584,-0.007504845038056374
540,-1.1315869092941284,-0.9940271377563477,89.94044494628906,2.0739147663116455,2.132279396057129,0.9307880997657776,26616,,,,,,,,,,
541,,,,,,,26617,-0.2044515758752823,0.21049350500106812,0.005637750029563904,,,,,,,
542,,,,,,,26619,,,,-0.01311615202575922,-0.0008420075173489749,0.7067381143569946,0.707351803779602,,,
543,,,,,,,26627,,,,,,,,0.020657401531934738,0.06400647014379501,-0.007662738673388958
544,-0.5932982563972473,-1.1989314556121826,89.94815826416016,2.038461446762085,2.134833812713623,0.9064081907272339,26716,,,,,,,,,,
545,,,,,,,26717,-0.23475800454616547,0.2047741413116455,0.00030346846324391663,,,,,,,
546,,,,,,,26719,,,,-0.011057121679186821,0.0037421593442559242,0.7067762613296509,0.707339346408844,,,
547,,,,,,,26727,,,,,,,,0.0022134054452180862,0.21305756270885468,0.006511608604341745
548,0.5666905641555786,-1.1107815504074097,89.87012481689453,2.008085250854492,2.1500723361968994,0.892758846282959,26816,,,,,,,,,,
549,,,,,,,26817,-0.24225345253944397,0.218042254447937,0.01662459969520569,,,,,,,
550,,,,,,,26819,,,,-0.003345671808347106,0.010354560799896717,0.7062284350395203,0.7078989148139954,,,
551,,,,,,,26827,,,,,,,,-0.022021954879164696,0.19519811868667603,-0.014955799095332623
552,0.9637812376022339,-1.4508363008499146,89.80779266357422,1.986627459526062,2.163675546646118,0.8801308870315552,26916,,,,,,,,,,
553,,,,,,,26917,-0.22320868074893951,0.22730760276317596,0.027005750685930252,,,,,,,
554,,,,,,,26919,,,,-0.0029804680962115526,0.01490373071283102,0.7057620882987976,0.7082844972610474,,,
555,,,,,,,26927,,,,,,,,-0.19559022784233093,-0.16767287254333496,-0.008409631438553333
556,0.8047650456428528,-1.9631766080856323,89.78193664550781,1.959869623184204,2.1952905654907227,0.8827099204063416,27016,,,,,,,,,,
557,,,,,,,27017,-0.2157520204782486,0.26978105306625366,0.048203710466623306,,,,,,,
558,,,,,,,27019,,,,-0.0071155596524477005,0.01709197461605072,0.7055530548095703,0.70841383934021,,,
559,,,,,,,27027,,,,,,,,0.2133137583732605,0.1327625960111618,-0.005861734971404076
560,0.8029367327690125,-0.9977269768714905,89.70552825927734,1.957714557647705,2.237732410430908,0.8949294686317444,27116,,,,,,,,,,
561,,,,,,,27117,-0.18034914135932922,0.3138488531112671,0.06885529309511185,,,,,,,
562,,,,,,,27119,,,,-0.0011734411818906665,0.011113899759948254,0.7051994204521179,0.7089195847511292,,,
563,,,,,,,27127,,,,,,,,0.2620009779930115,-0.021659884601831436,-0.010328247211873531
564,0.6338205337524414,0.44957536458969116,89.67809295654297,1.954457402229309,2.2820403575897217,0.9117350578308105,27216,,,,,,,,,,
565,,,,,,,27217,-0.15276360511779785,0.3354766368865967,0.08590051531791687,,,,,,,
566,,,,,,,27219,,,,0.006688346154987812,0.0011181245790794492,0.7051160931587219,0.7090580463409424,,,
567,,,,,,,27227,,,,,,,,0.31862279772758484,-0.142583966255188,-0.007352855522185564
568,-0.23414212465286255,1.7479898929595947,89.7219009399414,1.9415944814682007,2.3263192176818848,0.9256260395050049,27316,,,,,,,,,,
569,,,,,,,27317,-0.14557746052742004,0.32943055033683777,0.07506130635738373,,,,,,,
570,,,,,,,27319,,,,0.009311488829553127,-0.012253117747604847,0.7052823305130005,0.7087580561637878,,,
571,,,,,,,27327,,,,,,,,-0.06872482597827911,-0.4092245399951935,0.014714919030666351
572,-1.7177165746688843,1.684452772140503,89.80097961425781,1.9257481098175049,2.355497121810913,0.926123321056366,27416,,,,,,,,,,
573,,,,,,,27417,-0.16631081700325012,0.3012542426586151,0.0479891374707222,,,,,,,
574,,,,,,,27419,,,,-0.00024169401149265468,-0.020990194752812386,0.7055652737617493,0.7083324790000916,,,
575,,,,,,,27427,,,,,,,,0.23010598123073578,0.14995674788951874,0.004376002121716738
576,-1.6510956287384033,1.7375425100326538,89.81979370117188,1.9008909463882446,2.378206253051758,0.9238476753234863,27516,,,,,,,,,,
577,,,,,,,27517,-0.19856996834278107,0.2598693370819092,0.02659722976386547,,,,,,,
578,,,,,,,27519,,,,0.0005005791899748147,-0.020907938480377197,0.7056840658187866,0.7082164287567139,,,
579,,,,,,,27527,,,,,,,,-0.029966862872242928,0.07171180844306946,0.0031175140757113695
580,-0.6795995831489563,1.9363341331481934,89.8515853881836,1.8709814548492432,2.3962209224700928,0.9164417386054993,27616,,,,,,,,,,
581,,,,,,,27617,-0.22935613989830017,0.22128404676914215,0.0179009847342968,,,,,,,
582,,,,,,,27619,,,,0.00773384515196085,-0.01615070179104805,0.7060055136680603,0.7079785466194153,,,
583,,,,,,,27627,,,,,,,,-0.061954814940690994,0.26961034536361694,-0.01487409882247448
584,0.32918331027030945,1.164300560951233,89.83728790283203,1.8490931987762451,2.398669958114624,0.9000106453895569,27716,,,,,,,,,,
585,,,,,,,27717,-0.23053957521915436,0.1702570766210556,0.015410508960485458,,,,,,,
586,,,,,,,27719,,,,0.009208215400576591,-0.005166277289390564,0.7060826420783997,0.7080492973327637,,,
587,,,,,,,27727,,,,,,,,-0.08562388271093369,0.23739594221115112,0.0074949199333786964
588,1.0044763088226318,0.21900315582752228,89.94286346435547,1.8325161933898926,2.401331901550293,0.8870763182640076,27816,,,,,,,,,,
589,,,,,,,27817,-0.21153806149959564,0.13955579698085785,0.022995099425315857,,,,,,,
