,stabilizer.roll,stabilizer.pitch,stabilizer.yaw,stateEstimate.x,stateEstimate.y,stateEstimate.z,time,stateEstimate.vx,stateEstimate.vy,stateEstimate.vz,stateEstimate.qx,stateEstimate.qy,stateEstimate.qz,stateEstimate.qw,controller.r_pitch,controller.r_roll,controller.r_yaw
0,-0.9095354676246643,-0.3216661810874939,90.0347900390625,1.354899525642395,0.3352576196193695,0.25425928831100464,14068,,,,,,,,,,
1,,,,,,,14069,-0.015105131082236767,-0.03641480579972267,0.005088421981781721,,,,,,,
2,,,,,,,14071,,,,-0.007596652023494244,-0.0036136710550636053,0.7073107361793518,0.7068513035774231,,,
3,,,,,,,14073,,,,,,,,0.0019533901941031218,0.0023747682571411133,0.003599332645535469
4,-0.9067773818969727,-0.3196640908718109,90.03287506103516,1.3557021617889404,0.33437758684158325,0.2537141442298889,14168,,,,,,,,,,
5,,,,,,,14169,-0.013614530675113201,-0.036648478358983994,0.0036693059373646975,,,,,,,
6,,,,,,,14171,,,,-0.007566777989268303,-0.0036250303965061903,0.7072996497154236,0.7068625688552856,,,
7,,,,,,,14173,,,,,,,,-0.0045228637754917145,-0.0014570045750588179,0.0007956635090522468
8,-0.9206594228744507,-0.30382639169692993,90.03279876708984,1.3501224517822266,0.3293394148349762,0.2515646815299988,14268,,,,,,,,,,
9,,,,,,,14269,-0.02124634198844433,-0.0413159616291523,0.001505910768173635,,,,,,,
10,,,,,,,14271,,,,-0.007554661948233843,-0.0038084108382463455,0.707298219203949,0.706863284111023,,,
11,,,,,,,14273,,,,,,,,-0.0017392473528161645,0.0009324499405920506,0.0009598562028259039
12,-0.9184544086456299,-0.3178212642669678,90.03447723388672,1.3510411977767944,0.3316606879234314,0.2502495348453522,14368,,,,,,,,,,
13,,,,,,,14369,-0.020887466147542,-0.035954613238573074,0.0015802189009264112,,,,,,,
14,,,,,,,14371,,,,-0.007627382874488831,-0.0037085802759975195,0.7073091268539429,0.70685213804245,,,
15,,,,,,,14373,,,,,,,,-0.005321234930306673,0.0005984836025163531,-0.005247138906270266
16,-0.9445496797561646,-0.30861514806747437,89.95320892333984,1.3469023704528809,0.3301626443862915,0.24953974783420563,14468,,,,,,,,,,
17,,,,,,,14469,-0.03831445053219795,-0.02854868210852146,0.00039186025969684124,,,,,,,
18,,,,,,,14471,,,,-0.007734311278909445,-0.003920957446098328,0.7068064212799072,0.7073523998260498,,,
19,,,,,,,14473,,,,,,,,0.1056341603398323,0.09086938947439194,0.12058078497648239
20,-0.17820028960704803,-0.29920437932014465,90.73699951171875,1.3426376581192017,0.3218305706977844,0.24462084472179413,14568,,,,,,,,,,
21,,,,,,,14569,-0.053255509585142136,-0.03062734566628933,0.03184480965137482,,,,,,,
22,,,,,,,14571,,,,-0.0029506408609449863,0.0007277170079760253,0.7116388082504272,0.7025375366210938,,,
23,,,,,,,14573,,,,,,,,0.2746148109436035,1.1249808073043823,0.0780731812119484
24,5.5225701332092285,0.6618803143501282,91.21832275390625,1.343132495880127,0.32245752215385437,0.24865323305130005,14668,,,,,,,,,,
25,,,,,,,14669,0.004718858283013105,-0.023886559531092644,0.14619620144367218,,,,,,,
26,,,,,,,14671,,,,0.03782271221280098,0.03038853034377098,0.713936984539032,0.698525607585907,,,
27,,,,,,,14673,,,,,,,,0.202698215842247,-0.6393613815307617,-0.010855698958039284
28,3.75959849357605,1.6508201360702515,91.24954986572266,1.3641340732574463,0.2909383773803711,0.2557203471660614,14768,,,,,,,,,,
29,,,,,,,14769,0.09722651541233063,-0.07997123152017593,0.21233132481575012,,,,,,,
30,,,,,,,14771,,,,0.033229630440473557,0.013374952599406242,0.7146462202072144,0.6985669136047363,,,
31,,,,,,,14773,,,,,,,,-0.11176051199436188,0.5243875980377197,0.07963206619024277
32,2.660684823989868,1.3624241352081299,91.57701110839844,1.3970422744750977,0.2906492054462433,0.2823886275291443,14868,,,,,,,,,,
33,,,,,,,14869,0.19147972762584686,-0.09047076851129532,0.22560665011405945,,,,,,,
34,,,,,,,14871,,,,0.024707581847906113,0.00835175160318613,0.7167186737060547,0.6968730688095093,,,
35,,,,,,,14873,,,,,,,,0.0608392208814621,-0.5650021433830261,-0.017394179478287697
36,0.734178900718689,-0.5200170874595642,91.49940490722656,1.443057656288147,0.2915429472923279,0.3177519738674164,14968,,,,,,,,,,
37,,,,,,,14969,0.24809888005256653,-0.08859963715076447,0.2305891364812851,,,,,,,
38,,,,,,,14971,,,,0.0012201390927657485,0.007755703758448362,0.7162553071975708,0.6977927684783936,,,
39,,,,,,,14973,,,,,,,,0.1937793344259262,-0.500764787197113,-0.045665014535188675
40,-2.2931692600250244,0.23837116360664368,91.29413604736328,1.475048303604126,0.28359565138816833,0.3359090983867645,15068,,,,,,,,,,
41,,,,,,,15069,0.2460005134344101,-0.08938034623861313,0.194425567984581,,,,,,,
42,,,,,,,15071,,,,-0.012501577846705914,-0.0157622080296278,0.7148727178573608,0.6989637017250061,,,
43,,,,,,,15073,,,,,,,,-0.3876515030860901,-0.426069438457489,-0.0034858998842537403
44,-3.533531665802002,-0.23095248639583588,91.28199005126953,1.5025321245193481,0.2921774089336395,0.3545284867286682,15168,,,,,,,,,,
45,,,,,,,15169,0.2022666037082672,-0.06360882520675659,0.15060219168663025,,,,,,,
46,,,,,,,15171,,,,-0.022995786741375923,-0.020634837448596954,0.7146745324134827,0.6987730264663696,,,
47,,,,,,,15173,,,,,,,,0.2518579959869385,-0.14745980501174927,-0.004346360452473164
48,-4.3279643058776855,-0.11385249346494675,91.1482925415039,1.527273416519165,0.30380284786224365,0.37707674503326416,15268,,,,,,,,,,
49,,,,,,,15269,0.14493170380592346,-0.04435453191399574,0.14484494924545288,,,,,,,
50,,,,,,,15271,,,,-0.027140209451317787,-0.026271289214491844,0.7136728167533875,0.6994585990905762,,,
51,,,,,,,15273,,,,,,,,0.019614703953266144,-0.021939029917120934,-0.013532395474612713
52,-3.762460231781006,0.7002800107002258,91.05023193359375,1.5358936786651611,0.320099800825119,0.3972601890563965,15368,,,,,,,,,,
53,,,,,,,15369,0.07170913368463516,-0.023898078128695488,0.14032553136348724,,,,,,,
54,,,,,,,15371,,,,-0.018640317022800446,-0.027703125029802322,0.713018536567688,0.7003482580184937,,,
55,,,,,,,15373,,,,,,,,0.11633837223052979,0.10234352946281433,-0.035115525126457214
56,-3.1590354442596436,1.4256418943405151,90.90132141113281,1.5344841480255127,0.33875328302383423,0.4147324562072754,15468,,,,,,,,,,
57,,,,,,,15469,0.00459927087649703,-0.017470331862568855,0.15477392077445984,,,,,,,
58,,,,,,,15471,,,,-0.010472975671291351,-0.02836623229086399,0.7120794653892517,0.701445996761322,,,
59,,,,,,,15473,,,,,,,,0.1604824811220169,0.2812860310077667,-0.049041748046875
60,-1.7500079870224,2.144376039505005,90.65484619140625,1.5268203020095825,0.34807419776916504,0.4448518753051758,15568,,,,,,,,,,
61,,,,,,,15569,-0.04604162275791168,-0.034735795110464096,0.1774950623512268,,,,,,,
62,,,,,,,15571,,,,0.002570797223597765,-0.024012040346860886,0.7107270359992981,0.7030518054962158,,,
63,,,,,,,15573,,,,,,,,0.013761427253484726,0.2341686338186264,-0.055098120123147964
64,-0.39298826456069946,2.511521577835083,90.400390625,1.513444423675537,0.35017895698547363,0.4682246148586273,15668,,,,,,,,,,
65,,,,,,,15669,-0.073326475918293,-0.06541706621646881,0.17252837121486664,,,,,,,
66,,,,,,,15671,,,,0.01313458476215601,-0.017875084653496742,0.7093449234962463,0.7045109868049622,,,
67,,,,,,,15673,,,,,,,,-0.013575205579400063,0.18096059560775757,-0.051583074033260345
68,0.6346080303192139,2.079381227493286,90.24148559570312,1.514967918395996,0.3352420926094055,0.4844919741153717,15768,,,,,,,,,,
69,,,,,,,15769,-0.06200256198644638,-0.11306831985712051,0.15884405374526978,,,,,,,
70,,,,,,,15771,,,,0.016764329746365547,-0.008879691362380981,0.7085380554199219,0.7054161429405212,,,
71,,,,,,,15773,,,,,,,,-0.1350076049566269,0.17969998717308044,-0.03376731276512146
72,0.9181442856788635,1.3065353631973267,90.11994934082031,1.5255835056304932,0.31391653418540955,0.49743184447288513,15868,,,,,,,,,,
73,,,,,,,15869,-0.028770001605153084,-0.15215635299682617,0.13327153027057648,,,,,,,
74,,,,,,,15871,,,,0.013729407452046871,-0.0023822712246328592,0.7078417539596558,0.7062322497367859,,,
75,,,,,,,15873,,,,,,,,-0.17572151124477386,0.0005266401567496359,-0.034437116235494614
76,0.7136732935905457,0.044309064745903015,90.01568603515625,1.53140389919281,0.29255303740501404,0.5113741159439087,15968,,,,,,,,,,
77,,,,,,,15969,-0.004548352677375078,-0.1707923859357834,0.12972219288349152,,,,,,,
78,,,,,,,15971,,,,0.004676655866205692,0.004131038673222065,0.7071908116340637,0.7069937586784363,,,
79,,,,,,,15973,,,,,,,,-0.14820510149002075,-0.07679273933172226,-0.0010268893092870712
80,-0.07033083587884903,-0.7623599171638489,90.04884338378906,1.5284308195114136,0.2777538299560547,0.5223231315612793,16068,,,,,,,,,,
81,,,,,,,16069,-0.0005357323097996414,-0.16255956888198853,0.13542714715003967,,,,,,,
82,,,,,,,16071,,,,-0.005140039604157209,0.0042680720798671246,0.707394540309906,0.7067859172821045,,,
83,,,,,,,16073,,,,,,,,-0.1620294451713562,-0.11301789432764053,0.01121845655143261
84,-0.3398739993572235,-1.707406759262085,90.12349700927734,1.533099889755249,0.2556697130203247,0.5327328443527222,16168,,,,,,,,,,
85,,,,,,,16169,0.0010797319700941443,-0.15047912299633026,0.13974077999591827,,,,,,,
86,,,,,,,16171,,,,-0.01264151930809021,0.008424786850810051,0.7078173160552979,0.7062308192253113,,,
87,,,,,,,16173,,,,,,,,-0.13610588014125824,-0.03377586975693703,0.0056930482387542725
88,-0.6648976802825928,-2.2285947799682617,90.21943664550781,1.5437257289886475,0.23648104071617126,0.5386435985565186,16268,,,,,,,,,,
89,,,,,,,16269,0.005169800482690334,-0.12339001893997192,0.1317472606897354,,,,,,,
90,,,,,,,16271,,,,-0.017871346324682236,0.009614570066332817,0.7083926796913147,0.7055253982543945,,,
91,,,,,,,16273,,,,,,,,-0.06161189824342728,-0.03520813211798668,0.022286873310804367
92,-0.7893906235694885,-2.1723508834838867,90.3076400756836,1.5215786695480347,0.2210976928472519,0.5571155548095703,16368,,,,,,,,,,
93,,,,,,,16369,-0.032211050391197205,-0.08956358581781387,0.14658299088478088,,,,,,,
94,,,,,,,16371,,,,-0.018215831369161606,0.008439235389232635,0.7089564800262451,0.7049649357795715,,,
95,,,,,,,16373,,,,,,,,0.019317442551255226,-0.007382452953606844,0.007708284538239241
96,-0.28236275911331177,-1.8640955686569214,90.37797546386719,1.5072929859161377,0.20706920325756073,0.5775344967842102,16468,,,,,,,,,,
97,,,,,,,16469,-0.055535487830638885,-0.06133366376161575,0.1599041074514389,,,,,,,
98,,,,,,,16471,,,,-0.012943053618073463,0.009529960341751575,0.7093954086303711,0.7046260237693787,,,
99,,,,,,,16473,,,,,,,,0.07669256627559662,0.20337913930416107,0.02838171273469925
100,0.47201141715049744,-1.5070018768310547,90.49039459228516,1.5218532085418701,0.19695837795734406,0.590726375579834,16568,,,,,,,,,,
101,,,,,,,16569,-0.030733590945601463,-0.03915875032544136,0.15165835618972778,,,,,,,
102,,,,,,,16571,,,,-0.006488271057605743,0.012211417779326439,0.7100158333778381,0.7040484547615051,,,
103,,,,,,,16573,,,,,,,,0.08145347237586975,0.05150264874100685,0.018792523071169853
104,0.38854527473449707,-0.8373405933380127,90.55813598632812,1.5433087348937988,0.20944054424762726,0.5938023328781128,16668,,,,,,,,,,
105,,,,,,,16669,0.004704265855252743,-0.001331722130998969,0.1349613070487976,,,,,,,
106,,,,,,,16671,,,,-0.002867370145395398,0.007584669161587954,0.710496723651886,0.7036524415016174,,,
107,,,,,,,16673,,,,,,,,0.06751155853271484,-0.14737753570079803,0.013303583487868309
108,-0.1321040540933609,-0.40784400701522827,90.59722137451172,1.5604506731033325,0.21610867977142334,0.5977579355239868,16768,,,,,,,,,,
109,,,,,,,16769,0.02429627813398838,0.01654617115855217,0.1320720911026001,,,,,,,
110,,,,,,,16771,,,,-0.0034034685231745243,0.0017184267053380609,0.7107758522033691,0.703406810760498,,,
111,,,,,,,16773,,,,,,,,0.0820915475487709,-0.1490286886692047,0.003654985222965479
112,-0.9795618653297424,0.3069065511226654,90.58338928222656,1.561726450920105,0.22649015486240387,0.5985984802246094,16868,,,,,,,,,,
113,,,,,,,16869,0.01404469832777977,0.026886744424700737,0.12911218404769897,,,,,,,
114,,,,,,,16871,,,,-0.004160148557275534,-0.00793188251554966,0.7106499671936035,0.7034872770309448,,,
115,,,,,,,16873,,,,,,,,0.0379444882273674,-0.15188691020011902,0.00898013822734356
116,-1.3764960765838623,0.9492502212524414,90.62242126464844,1.561100959777832,0.227092444896698,0.6002169251441956,16968,,,,,,,,,,
117,,,,,,,16969,-0.007965946570038795,0.014350183308124542,0.12019398808479309,,,,,,,
118,,,,,,,16971,,,,-0.0023662615567445755,-0.014470911584794521,0.7107968926429749,0.7032430171966553,,,
119,,,,,,,16973,,,,,,,,0.06736167520284653,0.016996530815958977,0.010461363010108471
120,-1.2692214250564575,0.9975266456604004,90.7672119140625,1.5494939088821411,0.22113527357578278,0.6021005511283875,17068,,,,,,,,,,
121,,,,,,,17069,-0.04124610498547554,-0.011918584816157818,0.11995358020067215,,,,,,,
122,,,,,,,17071,,,,-0.0016362452879548073,-0.013967728242278099,0.71168452501297,0.7023569941520691,,,
123,,,,,,,17073,,,,,,,,-0.04279818385839462,0.056715257465839386,0.023997323587536812
124,-0.48569953441619873,0.8017129898071289,90.93196105957031,1.5306177139282227,0.21858645975589752,0.6014461517333984,17168,,,,,,,,,,
125,,,,,,,17169,-0.07316626608371735,-0.029666177928447723,0.13764946162700653,,,,,,,
126,,,,,,,17171,,,,0.0019652373157441616,-0.007900435477495193,0.7127872109413147,0.7013316750526428,,,
127,,,,,,,17173,,,,,,,,-0.13390421867370605,0.07636190205812454,0.04406469687819481
128,0.42578598856925964,0.17123590409755707,91.21363067626953,1.506162166595459,0.21334342658519745,0.6054272055625916,17268,,,,,,,,,,
129,,,,,,,17269,-0.09565962851047516,-0.039912715554237366,0.14573337137699127,,,,,,,
130,,,,,,,17271,,,,0.0035873183514922857,0.0016544541576877236,0.7145498394966125,0.699571967124939,,,
131,,,,,,,17273,,,,,,,,-0.007800098042935133,0.22818666696548462,0.04459846764802933
132,1.1046032905578613,-0.34363916516304016,91.40541076660156,1.48243248462677,0.21330860257148743,0.6144038438796997,17368,,,,,,,,,,
133,,,,,,,17369,-0.09829975664615631,-0.034608256071805954,0.16545449197292328,,,,,,,
134,,,,,,,17371,,,,0.004585664719343185,0.008993301540613174,0.7156683802604675,0.6983658671379089,,,
135,,,,,,,17373,,,,,,,,0.026028482243418694,0.15691286325454712,0.02570757456123829
136,1.9253170490264893,-0.1397453397512436,91.55445861816406,1.458204746246338,0.21397481858730316,0.6278069019317627,17468,,,,,,,,,,
137,,,,,,,17469,-0.09013233333826065,-0.026689976453781128,0.1760099083185196,,,,,,,
138,,,,,,,17471,,,,0.010625144466757774,0.013686729595065117,0.7166234850883484,0.6972435116767883,,,
139,,,,,,,17473,,,,,,,,-0.1582784652709961,0.05812353640794754,0.024471228942275047
140,2.337449312210083,-0.20734453201293945,91.70642852783203,1.4408235549926758,0.22088614106178284,0.6437183618545532,17568,,,,,,,,,,
141,,,,,,,17569,-0.06561242789030075,-0.00839887373149395,0.16824766993522644,,,,,,,
142,,,,,,,17571,,,,0.014314642176032066,0.01589905470609665,0.7174192070960999,0.6963117122650146,,,
143,,,,,,,17573,,,,,,,,0.20103678107261658,0.15878352522850037,0.026412416249513626
144,2.5348803997039795,0.1837310492992401,91.80684661865234,1.428791880607605,0.2249859720468521,0.6612620949745178,17668,,,,,,,,,,
145,,,,,,,17669,-0.03005664423108101,-0.003574884496629238,0.1594843566417694,,,,,,,
146,,,,,,,17671,,,,0.01666613668203354,0.014729425311088562,0.7180537581443787,0.6956307291984558,,,
147,,,,,,,17673,,,,,,,,0.04811333492398262,0.03190154209733009,0.01741766929626465
148,2.639909267425537,0.6034997701644897,91.88082885742188,1.4233018159866333,0.22786839306354523,0.6764252781867981,17768,,,,,,,,,,
149,,,,,,,17769,0.009779786691069603,-0.0045406874269247055,0.14948858320713043,,,,,,,
150,,,,,,,17771,,,,0.020030934363603592,0.01238242071121931,0.7185292840003967,0.695096492767334,,,
151,,,,,,,17773,,,,,,,,0.0829460397362709,-0.05893688276410103,0.003799591213464737
152,1.8472316265106201,0.6803944110870361,91.85919189453125,1.4213510751724243,0.22845257818698883,0.6896394491195679,17868,,,,,,,,,,
153,,,,,,,17869,0.04365573078393936,-0.013952335342764854,0.13869021832942963,,,,,,,
154,,,,,,,17871,,,,0.014872766099870205,0.00710575096309185,0.7184253334999084,0.6954073309898376,,,
155,,,,,,,17873,,,,,,,,-0.012033008970320225,-0.1143820658326149,-0.0037894195411354303
156,1.3557230234146118,0.7471216320991516,91.79591369628906,1.4229340553283691,0.22231034934520721,0.7013524770736694,17968,,,,,,,,,,
157,,,,,,,17969,0.06597881764173508,-0.030010046437382698,0.12447257339954376,,,,,,,
158,,,,,,,17971,,,,0.012194693088531494,0.0036418673116713762,0.7180120944976807,0.6959128379821777,,,
159,,,,,,,17973,,,,,,,,-0.09951496124267578,-0.17396250367164612,-0.026052622124552727
160,0.5324726104736328,0.11337234079837799,91.67296600341797,1.4260344505310059,0.21563100814819336,0.7098339200019836,18068,,,,,,,,,,
161,,,,,,,18069,0.07588031888008118,-0.04033892974257469,0.13449722528457642,,,,,,,
162,,,,,,,18071,,,,0.0038027663249522448,0.0025930083356797695,0.7172518968582153,0.6967973709106445,,,
163,,,,,,,18073,,,,,,,,-0.006893542129546404,-0.021896159276366234,-0.022320669144392014
164,0.06722233444452286,-0.3769809305667877,91.517333984375,1.4337745904922485,0.2066461741924286,0.7187148928642273,18168,,,,,,,,,,
165,,,,,,,18169,0.08156469464302063,-0.045268673449754715,0.1286410093307495,,,,,,,
166,,,,,,,18171,,,,-0.002985227620229125,0.0028032762929797173,0.7163484692573547,0.6977291703224182,,,
167,,,,,,,18173,,,,,,,,-0.12978197634220123,-0.11271587759256363,-0.028156612068414688
168,-0.20302724838256836,-0.5146058797836304,91.41758728027344,1.4406421184539795,0.20257949829101562,0.7257052659988403,18268,,,,,,,,,,
169,,,,,,,18269,0.0772194042801857,-0.03598065674304962,0.11179991811513901,,,,,,,
170,,,,,,,18271,,,,-0.004590427037328482,0.0016148195136338472,0.7157575488090515,0.6983305215835571,,,
171,,,,,,,18273,,,,,,,,0.0019582423847168684,-0.07413136214017868,-0.003285422921180725
172,-0.5282914042472839,-1.0062602758407593,91.41426086425781,1.446177363395691,0.20010361075401306,0.7277106046676636,18368,,,,,,,,,,
173,,,,,,,18369,0.06721680611371994,-0.02302118018269539,0.10171355307102203,,,,,,,
174,,,,,,,18371,,,,-0.009195043705403805,0.003057572292163968,0.7158142328262329,0.6982220411300659,,,
175,,,,,,,18373,,,,,,,,0.05211366340517998,0.07764745503664017,0.008047733455896378
176,-0.3898443579673767,-0.6816767454147339,91.52847290039062,1.4601751565933228,0.1901106983423233,0.733537495136261,18468,,,,,,,,,,
177,,,,,,,18469,0.06849287450313568,-0.01879185065627098,0.10134509205818176,,,,,,,
178,,,,,,,18471,,,,-0.006703952793031931,0.0015071035595610738,0.7165442705154419,0.697506308555603,,,
179,,,,,,,18473,,,,,,,,-0.007548983674496412,-0.03577157482504845,0.00470210425555706
180,-0.5514913201332092,-0.7837469577789307,91.56597137451172,1.4937018156051636,0.1329236477613449,0.7531616687774658,18568,,,,,,,,,,
181,,,,,,,18569,0.08848290890455246,-0.0715070590376854,0.10418081283569336,,,,,,,
182,,,,,,,18571,,,,-0.00825794693082571,0.0013204567367210984,0.7167007327079773,0.6973292827606201,,,
183,,,,,,,18573,,,,,,,,-0.0716346874833107,-0.015676258131861687,-0.0018875065725296736
184,-1.1475557088851929,-1.7723861932754517,91.53135681152344,1.527192234992981,0.07337392866611481,0.7718027234077454,18668,,,,,,,,,,
185,,,,,,,18669,0.10212232172489166,-0.1133265495300293,0.11167193204164505,,,,,,,
186,,,,,,,18671,,,,-0.01806597039103508,0.0036145243793725967,0.7164785861968994,0.697364330291748,,,
187,,,,,,,18673,,,,,,,,-0.18035288155078888,-0.06212158873677254,-0.014702208340168
188,-2.2691361904144287,-3.844837188720703,91.40574645996094,1.5625696182250977,0.009527724236249924,0.7919109463691711,18768,,,,,,,,,,
189,,,,,,,18769,0.10486502200365067,-0.13572540879249573,0.12209171801805496,,,,,,,
190,,,,,,,18771,,,,-0.03782586753368378,0.009259543381631374,0.7156478762626648,0.6973733305931091,,,
191,,,,,,,18773,,,,,,,,-0.7084144949913025,-0.3987700343132019,-0.0015480697620660067
192,-3.138197898864746,-5.673286437988281,91.32500457763672,1.5803687572479248,-0.03308074176311493,0.7962432503700256,18868,,,,,,,,,,
193,,,,,,,18869,0.06526736915111542,-0.0919097512960434,0.09340928494930267,,,,,,,
194,,,,,,,18871,,,,-0.05563284829258919,0.015671618282794952,0.7150022983551025,0.696727454662323,,,
195,,,,,,,18873,,,,,,,,-0.27978217601776123,-0.09921909868717194,0.012742993421852589
196,-3.5113887786865234,-6.910400390625,91.18061828613281,1.5905200242996216,-0.05926913395524025,0.7892884612083435,18968,,,,,,,,,,
197,,,,,,,18969,0.011711672879755497,-0.009954540058970451,0.05716274306178093,,,,,,,
198,,,,,,,18971,,,,-0.06436412781476974,0.020908169448375702,0.7138574719429016,0.6970118880271912,,,
199,,,,,,,18973,,,,,,,,-0.03990385681390762,0.11722110956907272,-0.033335793763399124
200,-2.835899829864502,-6.534261703491211,90.97518157958984,1.5966875553131104,-0.05699692294001579,0.7811050415039062,19068,,,,,,,,,,
201,,,,,,,19069,-0.03679344803094864,0.10486351698637009,0.04313259571790695,,,,,,,
202,,,,,,,19071,,,,-0.05654183402657509,0.022150665521621704,0.7126038074493408,0.6989322304725647,,,
203,,,,,,,19073,,,,,,,,0.2471981942653656,0.18597523868083954,-0.046024665236473083
204,-2.0416460037231445,-5.039135932922363,90.73065948486328,1.595489740371704,-0.03570854291319847,0.776528537273407,19168,,,,,,,,,,
205,,,,,,,19169,-0.07463967800140381,0.21260760724544525,0.05272981896996498,,,,,,,
206,,,,,,,19171,,,,-0.042179521173238754,0.01722370833158493,0.7112395167350769,0.7014702558517456,,,
207,,,,,,,19173,,,,,,,,0.40982240438461304,0.0954049751162529,-0.05103636905550957
208,-0.9951919913291931,-2.9006316661834717,90.48690795898438,1.5928035974502563,0.013677624985575676,0.782872200012207,19268,,,,,,,,,,
209,,,,,,,19269,-0.09690818190574646,0.30950629711151123,0.08628515154123306,,,,,,,
210,,,,,,,19271,,,,-0.02302662283182144,0.014357419684529305,0.7097082734107971,0.7039714455604553,,,
211,,,,,,,19273,,,,,,,,-0.6290979385375977,0.8028501272201538,-0.05298352614045143
212,5.069382667541504,-7.995888710021973,90.43999481201172,1.5756453275680542,0.060045916587114334,0.7765053510665894,19368,,,,,,,,,,
213,,,,,,,19369,-0.07012977451086044,0.41968071460723877,0.06563185900449753,,,,,,,
214,,,,,,,19371,,,,-0.016169965267181396,0.08210433274507523,0.7048931121826172,0.7043585777282715,,,
215,,,,,,,19373,,,,,,,,0.44222456216812134,0.3283686637878418,-0.04299823194742203
216,5.5708088874816895,-4.753760814666748,89.89866638183594,1.5686452388763428,0.14812694489955902,0.7763313055038452,19468,,,,,,,,,,
217,,,,,,,19469,0.021962029859423637,0.5772177577018738,0.07331212610006332,,,,,,,
218,,,,,,,19471,,,,0.006774045992642641,0.06386899203062057,0.7035117149353027,0.7077741026878357,,,
219,,,,,,,19473,,,,,,,,0.18772709369659424,0.3394312262535095,0.007933409884572029
220,6.269724369049072,-1.9541308879852295,89.70245361328125,1.5568053722381592,0.30384963750839233,0.7664172649383545,19568,,,,,,,,,,
221,,,,,,,19569,0.11174288392066956,0.7518087029457092,0.07541165500879288,,,,,,,
222,,,,,,,19571,,,,0.029724495485424995,0.045647650957107544,0.703498899936676,0.7086042761802673,,,
223,,,,,,,19573,,,,,,,,1.198461890220642,-0.32276442646980286,0.036744728684425354
224,4.578649520874023,3.5560293197631836,89.4269027709961,1.5628726482391357,0.4534255266189575,0.7559136748313904,19668,,,,,,,,,,
225,,,,,,,19669,0.19520696997642517,0.8133146166801453,0.09074078500270844,,,,,,,
226,,,,,,,19671,,,,0.05220850557088852,0.0028423406183719635,0.7035176157951355,0.7087503671646118,,,
227,,,,,,,19673,,,,,,,,0.8366521596908569,-0.1487361043691635,0.04822783172130585
228,3.301539421081543,9.219799995422363,89.28097534179688,1.581298589706421,0.5794092416763306,0.7452197074890137,19768,,,,,,,,,,
229,,,,,,,19769,0.25993460416793823,0.7532351016998291,0.08825966715812683,,,,,,,
230,,,,,,,19771,,,,0.0776839554309845,-0.04073423519730568,0.7015486359596252,0.7072011232376099,,,
231,,,,,,,19773,,,,,,,,0.5354918241500854,-0.4301260709762573,0.03340108320116997
232,1.4606248140335083,12.009354591369629,89.33344268798828,1.6016700267791748,0.6844793558120728,0.7382714748382568,19868,,,,,,,,,,
233,,,,,,,19869,0.2878187298774719,0.6061882376670837,0.08474462479352951,,,,,,,
234,,,,,,,19871,,,,0.08312860131263733,-0.06761560589075089,0.6998921632766724,0.7061633467674255,,,
235,,,,,,,19873,,,,,,,,0.3588830232620239,-0.2541126310825348,0.020643340423703194
236,-0.41277238726615906,13.084712028503418,89.36995697021484,1.6329319477081299,0.7547565698623657,0.7294563055038452,19968,,,,,,,,,,
237,,,,,,,19969,0.29604431986808777,0.40250980854034424,0.07342034578323364,,,,,,,
238,,,,,,,19971,,,,0.07600226998329163,-0.08373687416315079,0.698319137096405,0.7067957520484924,,,
239,,,,,,,19973,,,,,,,,-0.1939983367919922,-0.2150513380765915,0.005301980767399073
240,-1.235745906829834,12.055292129516602,89.38565063476562,1.6605478525161743,0.7930482029914856,0.7245913147926331,20068,,,,,,,,,,
241,,,,,,,20069,0.27528318762779236,0.1918647587299347,0.06840185821056366,,,,,,,
242,,,,,,,20071,,,,0.06485215574502945,-0.0812741294503212,0.6986541152000427,0.707862377166748,,,
243,,,,,,,20073,,,,,,,,-0.40741202235221863,-0.06848694384098053,-0.005460007581859827
244,-1.4398072957992554,7.529292583465576,89.42493438720703,1.6706446409225464,0.8054643869400024,0.7340996265411377,20168,,,,,,,,,,
245,,,,,,,20169,0.2278781235218048,0.014183319173753262,0.0945623442530632,,,,,,,
246,,,,,,,20171,,,,0.03728065267205238,-0.05547669529914856,0.7013888955116272,0.7096366286277771,,,
247,,,,,,,20173,,,,,,,,-0.7238905429840088,0.07708610594272614,0.027353189885616302
248,-0.9029769897460938,3.968454599380493,89.52973937988281,1.6608805656433105,0.8046064376831055,0.75485759973526,20268,,,,,,,,,,
249,,,,,,,20269,0.17144982516765594,-0.08646262437105179,0.1396745890378952,,,,,,,
250,,,,,,,20271,,,,0.018790345638990402,-0.03012833185493946,0.7035605311393738,0.7097463011741638,,,
251,,,,,,,20273,,,,,,,,-0.670262336730957,0.14631932973861694,0.022537603974342346
252,-0.15618054568767548,0.70503830909729,89.61869049072266,1.6539380550384521,0.7902960777282715,0.7767438292503357,20368,,,,,,,,,,
253,,,,,,,20369,0.1363876312971115,-0.13081936538219452,0.15920262038707733,,,,,,,
254,,,,,,,20371,,,,0.0033691111020743847,-0.00532549200579524,0.7047293186187744,0.709446907043457,,,
255,,,,,,,20373,,,,,,,,-0.418194442987442,0.12092041224241257,0.016871122643351555
256,0.8212199807167053,-1.4033687114715576,89.62620544433594,1.64401113986969,0.772432267665863,0.7961336374282837,20468,,,,,,,,,,
257,,,,,,,20469,0.11722850054502487,-0.13159942626953125,0.1624186784029007,,,,,,,
258,,,,,,,20471,,,,-0.0041196029633283615,0.015596015378832817,0.7046594619750977,0.7093608379364014,,,
259,,,,,,,20473,,,,,,,,-0.3421749472618103,0.18667861819267273,-0.0009177847532555461
260,2.8155832290649414,-4.24117374420166,89.73516082763672,1.6347163915634155,0.7523813247680664,0.8117910027503967,20568,,,,,,,,,,
261,,,,,,,20569,0.12296395748853683,-0.0945003479719162,0.13436637818813324,,,,,,,
262,,,,,,,20571,,,,-0.009112917818129063,0.04617323353886604,0.7040632367134094,0.7085745334625244,,,
263,,,,,,,20573,,,,,,,,-0.30882757902145386,0.2476864904165268,0.001010981621220708
264,3.608649253845215,-4.950598239898682,89.83889770507812,1.6277930736541748,0.7217298746109009,0.8207447528839111,20668,,,,,,,,,,
265,,,,,,,20669,0.1562083512544632,-0.042804867029190063,0.10609275102615356,,,,,,,
266,,,,,,,20671,,,,-0.008009362034499645,0.05355459451675415,0.7041839361190796,0.7079482674598694,,,
267,,,,,,,20673,,,,,,,,-0.09555243700742722,0.14446885883808136,0.020448241382837296
268,3.7897839546203613,-4.968295097351074,89.94804382324219,1.6309728622436523,0.7058640718460083,0.8283267617225647,20768,,,,,,,,,,
269,,,,,,,20769,0.2058185487985611,0.02581324242055416,0.09222967177629471,,,,,,,
270,,,,,,,20771,,,,-0.007050471380352974,0.05306702479720116,0.7047713994979858,0.7074103951454163,,,
271,,,,,,,20773,,,,,,,,0.129377543926239,-0.07073084264993668,0.009779354557394981
272,4.261286735534668,-5.530780792236328,90.04193878173828,1.6485559940338135,0.7163735032081604,0.8444918990135193,20868,,,,,,,,,,
273,,,,,,,20869,0.2658528685569763,0.11662889271974564,0.0760280191898346,,,,,,,
274,,,,,,,20871,,,,-0.00805106945335865,0.06046943739056587,0.7047939300537109,0.7067829370498657,,,
275,,,,,,,20873,,,,,,,,0.0811120867729187,-0.08091134577989578,0.002172346692532301
276,3.4418723583221436,-4.191128730773926,89.9249038696289,1.6669213771820068,0.7505089044570923,0.8545302152633667,20968,,,,,,,,,,
277,,,,,,,20969,0.3198537826538086,0.22400611639022827,0.07097674161195755,,,,,,,
278,,,,,,,20971,,,,-0.004035597201436758,0.045682162046432495,0.7050841450691223,0.7076377868652344,,,
279,,,,,,,20973,,,,,,,,0.22973760962486267,-0.1469075083732605,0.001863950747065246
280,2.051872730255127,-2.4190335273742676,89.82820129394531,1.7229067087173462,0.7875388860702515,0.8425439596176147,21068,,,,,,,,,,
281,,,,,,,21069,0.39098823070526123,0.29454585909843445,0.04157241806387901,,,,,,,
282,,,,,,,21071,,,,-0.001864143880084157,0.024605240672826767,0.7055739760398865,0.7082050442695618,,,
283,,,,,,,21073,,,,,,,,0.4588206112384796,-0.36202338337898254,0.0028492563869804144
284,0.11181231588125229,0.17950215935707092,89.77506256103516,1.7777986526489258,0.835066556930542,0.8306846618652344,21168,,,,,,,,,,
285,,,,,,,21169,0.42364928126335144,0.3310541808605194,0.043248943984508514,,,,,,,
286,,,,,,,21171,,,,0.0021870872005820274,-0.0030101335141807795,0.7057175636291504,0.7084821462631226,,,
287,,,,,,,21173,,,,,,,,0.3914918303489685,-0.3150614798069,-0.012403512373566628
288,-1.4196275472640991,1.4461191892623901,89.77719116210938,1.8269239664077759,0.8809048533439636,0.8235515356063843,21268,,,,,,,,,,
289,,,,,,,21269,0.4171971082687378,0.3272203505039215,0.058610592037439346,,,,,,,
290,,,,,,,21271,,,,-0.00011669733794406056,-0.018415724858641624,0.7055097818374634,0.7084593772888184,,,
291,,,,,,,21273,,,,,,,,0.10032445192337036,-0.10541585832834244,0.011586516164243221
292,-2.6186115741729736,2.7337303161621094,89.9062728881836,1.8675199747085571,0.9191767573356628,0.8211567997932434,21368,,,,,,,,,,
293,,,,,,,21369,0.38326001167297363,0.29977691173553467,0.07373777031898499,,,,,,,
294,,,,,,,21371,,,,0.0005521169514395297,-0.03495887294411659,0.7056945562362671,0.7076514959335327,,,
295,,,,,,,21373,,,,,,,,0.18912045657634735,-0.23608629405498505,-0.006169761065393686
296,-3.3991336822509766,3.160778760910034,89.93387603759766,1.9067950248718262,0.9439612030982971,0.820298969745636,21468,,,,,,,,,,
297,,,,,,,21469,0.33644840121269226,0.24655023217201233,0.08568615466356277,,,,,,,
298,,,,,,,21471,,,,-0.0015408900799229741,-0.04070274531841278,0.7055345177650452,0.7075026035308838,,,
299,,,,,,,21473,,,,,,,,0.07594174891710281,0.0007758585852570832,-0.004337083548307419
300,-3.624790906906128,3.328514814376831,89.99723052978516,1.935289740562439,0.9662169814109802,0.8188703060150146,21568,,,,,,,,,,
301,,,,,,,21569,0.26717355847358704,0.1844102293252945,0.0888439193367958,,,,,,,
302,,,,,,,21571,,,,-0.0015892788069322705,-0.042467258870601654,0.7058289051055908,0.7071051001548767,,,
303,,,,,,,21573,,,,,,,,-0.06205056980252266,0.1381991058588028,0.01063565630465746
304,-2.6507959365844727,2.0031626224517822,90.01594543457031,1.9558038711547852,0.9752718806266785,0.8215750455856323,21668,,,,,,,,,,
305,,,,,,,21669,0.2156255692243576,0.12998153269290924,0.07888007909059525,,,,,,,
306,,,,,,,21671,,,,-0.004751852713525295,-0.026336241513490677,0.7066643238067627,0.7070412635803223,,,
307,,,,,,,21673,,,,,,,,-0.46750736236572266,0.21336327493190765,0.006987532135099173
308,-1.7717187404632568,0.3424690365791321,90.02005767822266,1.9736984968185425,0.975906252861023,0.8323764801025391,21768,,,,,,,,,,
309,,,,,,,21769,0.1733417809009552,0.09940802305936813,0.08693848550319672,,,,,,,
310,,,,,,,21771,,,,-0.008535448461771011,-0.012296134606003761,0.7071712613105774,0.7068824768066406,,,
311,,,,,,,21773,,,,,,,,-0.08529208600521088,0.15613871812820435,0.014335510320961475
312,-0.9164972305297852,-0.7728756070137024,90.04659271240234,1.9851276874542236,0.9759313464164734,0.8406391143798828,21868,,,,,,,,,,
313,,,,,,,21869,0.14479313790798187,0.08894006907939911,0.10027660429477692,,,,,,,
314,,,,,,,21871,,,,-0.01070927269756794,0.00014973590441513807,0.7074416279792786,0.7066892385482788,,,
315,,,,,,,21873,,,,,,,,-0.16213266551494598,0.11000477522611618,0.022461554035544395
316,-0.023985030129551888,-2.0015931129455566,90.09001922607422,1.9925117492675781,0.9777438044548035,0.8479833602905273,21968,,,,,,,,,,
317,,,,,,,21969,0.1279996782541275,0.10009848326444626,0.10166970640420914,,,,,,,
318,,,,,,,21971,,,,-0.012974206358194351,0.014100716449320316,0.7075801491737366,0.7063719034194946,,,
319,,,,,,,21973,,,,,,,,-0.3050817847251892,0.20908668637275696,0.011758372187614441
320,0.523991584777832,-2.5350542068481445,90.11306762695312,1.9993741512298584,0.983877420425415,0.8522862792015076,22068,,,,,,,,,,
321,,,,,,,22069,0.12702146172523499,0.1341540366411209,0.07292488217353821,,,,,,,
322,,,,,,,22071,,,,-0.011952347122132778,0.019085528329014778,0.7076122164726257,0.7062406539916992,,,
323,,,,,,,22073,,,,,,,,0.026205068454146385,0.11760111153125763,0.02663806639611721
324,0.7467619180679321,-2.4109981060028076,90.19731140136719,2.0072062015533447,0.987916886806488,0.8565436601638794,22168,,,,,,,,,,
325,,,,,,,22169,0.1337313950061798,0.1623588502407074,0.07382109016180038,,,,,,,
326,,,,,,,22171,,,,-0.010336772538721561,0.01938800700008869,0.708050549030304,0.7058184742927551,,,
327,,,,,,,22173,,,,,,,,0.022818002849817276,0.02767794020473957,0.028332913294434547
328,0.7633040547370911,-1.8724260330200195,90.30023193359375,2.023258924484253,0.9933785796165466,0.8629488348960876,22268,,,,,,,,,,
329,,,,,,,22269,0.15006767213344574,0.18551351130008698,0.0791851282119751,,,,,,,
330,,,,,,,22271,,,,-0.006922392640262842,0.016163667663931847,0.7087655067443848,0.7052236199378967,,,
331,,,,,,,22273,,,,,,,,0.16004464030265808,-0.07218629866838455,0.009117227047681808
332,0.48212334513664246,-1.8773659467697144,90.29196166992188,2.035705327987671,0.9998763799667358,0.8681559562683105,22368,,,,,,,,,,
333,,,,,,,22369,0.15759636461734772,0.1970914751291275,0.08652893453836441,,,,,,,
334,,,,,,,22371,,,,-0.008672934025526047,0.014476657845079899,0.7087525725364685,0.7052538990974426,,,
335,,,,,,,22373,,,,,,,,-0.2714523673057556,-0.0461142361164093,0.016574524343013763
336,0.16879728436470032,-1.707442045211792,90.31352233886719,2.0483734607696533,1.007036566734314,0.8744224309921265,22468,,,,,,,,,,
337,,,,,,,22469,0.1607884168624878,0.21575722098350525,0.07104039192199707,,,,,,,
338,,,,,,,22471,,,,-0.009558954276144505,0.011476090177893639,0.7089394927024841,0.7051097750663757,,,
339,,,,,,,22473,,,,,,,,0.08746654540300369,-0.09703189879655838,0.005057447589933872
340,0.056045521050691605,-1.7048299312591553,90.33797454833984,2.0595219135284424,1.0168169736862183,0.8757938146591187,22568,,,,,,,,,,
341,,,,,,,22569,0.1561390906572342,0.2279483824968338,0.06003483012318611,,,,,,,
342,,,,,,,22571,,,,-0.0102413110435009,0.01075456291437149,0.7091009020805359,0.7049492597579956,,,
343,,,,,,,22573,,,,,,,,0.08417181670665741,-0.036171335726976395,0.0007855448639020324
344,-0.25103920698165894,-1.6683454513549805,90.31097412109375,2.0663466453552246,1.0309594869613647,0.8786308765411377,22668,,,,,,,,,,
345,,,,,,,22669,0.14522677659988403,0.24228627979755402,0.05693986639380455,,,,,,,
346,,,,,,,22671,,,,-0.011899064294993877,0.008640076965093613,0.7089644074440002,0.7050895094871521,,,
347,,,,,,,22673,,,,,,,,-0.1646023690700531,0.11389020830392838,-0.016491752117872238
348,-0.13364842534065247,-1.8109588623046875,90.27777099609375,2.0712389945983887,1.047245979309082,0.8804231286048889,22768,,,,,,,,,,
349,,,,,,,22769,0.1338605135679245,0.26314324140548706,0.044360458850860596,,,,,,,
350,,,,,,,22771,,,,-0.012058371677994728,0.010241428390145302,0.7087385058403015,0.7052924633026123,,,
351,,,,,,,22773,,,,,,,,0.11754540354013443,-0.006433515809476376,-0.02302055060863495
352,0.07479562610387802,-1.4034178256988525,90.15155029296875,2.0749611854553223,1.0677015781402588,0.8820244669914246,22868,,,,,,,,,,
353,,,,,,,22869,0.12287740409374237,0.28113168478012085,0.04618283733725548,,,,,,,
354,,,,,,,22871,,,,-0.008240421302616596,0.009040405973792076,0.7079790234565735,0.7061260938644409,,,
355,,,,,,,22873,,,,,,,,0.027865542098879814,-0.011471552774310112,-0.009833971969783306
356,0.08955062925815582,-0.3381618857383728,90.08344268798828,2.0765514373779297,1.093103051185608,0.8858608603477478,22968,,,,,,,,,,
357,,,,,,,22969,0.11296413093805313,0.29534950852394104,0.059302687644958496,,,,,,,
358,,,,,,,22971,,,,-0.0015688814455643296,0.0025604404509067535,0.7076131701469421,0.7065922617912292,,,
359,,,,,,,22973,,,,,,,,0.13503211736679077,0.04033598303794861,-0.019723789766430855
360,0.37186819314956665,0.012395931407809258,90.01451873779297,2.0814461708068848,1.1203080415725708,0.8907817006111145,23068,,,,,,,,,,
361,,,,,,,23069,0.10989197343587875,0.2950790226459503,0.06905736029148102,,,,,,,
362,,,,,,,23071,,,,0.002345788525417447,0.0021584229543805122,0.7071906328201294,0.7070143222808838,,,
363,,,,,,,23073,,,,,,,,0.21479381620883942,0.053004954010248184,-0.011747067794203758
364,0.43396997451782227,0.6463456749916077,89.95768737792969,2.086305618286133,1.1511257886886597,0.8937590718269348,23168,,,,,,,,,,
365,,,,,,,23169,0.11204001307487488,0.2879050076007843,0.07404129207134247,,,,,,,
366,,,,,,,23171,,,,0.0066385576501488686,-0.0013786947820335627,0.7068424224853516,0.7073372006416321,,,
367,,,,,,,23173,,,,,,,,-0.21596553921699524,0.018877075985074043,-0.018980324268341064
368,0.7107956409454346,0.18779350817203522,89.91004180908203,2.0912551879882812,1.1804522275924683,0.8993384838104248,23268,,,,,,,,,,
369,,,,,,,23269,0.11441739648580551,0.28475362062454224,0.07244892418384552,,,,,,,
370,,,,,,,23271,,,,0.006228945683687925,0.0026373101864010096,0.7064983248710632,0.7076809406280518,,,
371,,,,,,,23273,,,,,,,,0.16196511685848236,-0.0011874439660459757,-0.012436763383448124
372,0.43441537022590637,0.50422602891922,89.8486099243164,2.0960514545440674,1.2061524391174316,0.9011670351028442,23368,,,,,,,,,,
373,,,,,,,23369,0.11728906631469727,0.27457693219184875,0.0450248159468174,,,,,,,
374,,,,,,,23371,,,,0.005934249609708786,-0.0006849395576864481,0.7061414122581482,0.708044171333313,,,
375,,,,,,,23373,,,,,,,,0.07132500410079956,0.029949219897389412,0.0002878340892493725
376,0.5163658261299133,0.9213607907295227,89.79426574707031,2.1022980213165283,1.231911540031433,0.9006484150886536,23468,,,,,,,,,,
377,,,,,,,23469,0.11985783278942108,0.26015883684158325,0.04775290936231613,,,,,,,
378,,,,,,,23471,,,,0.008844928815960884,-0.002569761360064149,0.7058305144309998,0.7083194851875305,,,
379,,,,,,,23473,,,,,,,,-0.2892895042896271,-0.005721572786569595,-0.012213707901537418
380,0.3425365686416626,-0.18281352519989014,89.81385803222656,2.1085760593414307,1.2568333148956299,0.8974597454071045,23568,,,,,,,,,,
381,,,,,,,23569,0.1218358501791954,0.25506502389907837,0.04110276326537132,,,,,,,
382,,,,,,,23571,,,,0.0009675310575403273,0.0031835446134209633,0.7059484720230103,0.7082539200782776,,,
383,,,,,,,23573,,,,,,,,0.17146244645118713,-0.04281579703092575,0.011279447935521603
384,0.2622154951095581,0.19208462536334991,89.8265151977539,2.1205925941467285,1.2817962169647217,0.8915804028511047,23668,,,,,,,,,,
385,,,,,,,23669,0.1268443465232849,0.25225701928138733,0.03989091515541077,,,,,,,
386,,,,,,,23671,,,,0.002803980838507414,0.00042850751196965575,0.7060347199440002,0.7081701755523682,,,
387,,,,,,,23673,,,,,,,,-0.093437060713768,-0.039696063846349716,-0.011252169497311115
388,-0.013599884696304798,0.28517112135887146,89.90796661376953,2.1341209411621094,1.3011493682861328,0.8801884055137634,23768,,,,,,,,,,
389,,,,,,,23769,0.13061825931072235,0.2429746687412262,0.04344510659575462,,,,,,,
390,,,,,,,23771,,,,0.0016742958687245846,-0.0018449623603373766,0.7065355777740479,0.7076717615127563,,,
391,,,,,,,23773,,,,,,,,0.20583555102348328,-0.007642483804374933,0.007463025860488415
392,-0.3839009404182434,0.48897576332092285,89.91101837158203,2.150092124938965,1.322882056236267,0.8730738162994385,23868,,,,,,,,,,
393,,,,,,,23869,0.1318281590938568,0.23005624115467072,0.04408983513712883,,,,,,,
394,,,,,,,23871,,,,0.00064420560374856,-0.005386685486882925,0.7065362930297852,0.7076545357704163,,,
395,,,,,,,23873,,,,,,,,-0.3255409002304077,-0.07968352735042572,-0.008107387460768223
396,-0.7006044983863831,-0.40485820174217224,89.97527313232422,2.1603548526763916,1.3423155546188354,0.8649659752845764,23968,,,,,,,,,,
397,,,,,,,23969,0.11982184648513794,0.22858816385269165,0.04689750075340271,,,,,,,
398,,,,,,,23971,,,,-0.0068451231345534325,-0.0018819405231624842,0.7069495916366577,0.7072268724441528,,,
399,,,,,,,23973,,,,,,,,0.16613738238811493,-0.040384840220212936,0.009547829627990723
400,-0.9373908042907715,-0.4159589111804962,90.0291976928711,2.1659011840820312,1.3663021326065063,0.8605854511260986,24068,,,,,,,,,,
401,,,,,,,24069,0.09974195808172226,0.2338590770959854,0.05008988827466965,,,,,,,
402,,,,,,,24071,,,,-0.008371290750801563,-0.003273474983870983,0.7072772979736328,0.706877589225769,,,
403,,,,,,,24073,,,,,,,,-0.03454611450433731,-0.007135753054171801,0.02037527970969677
404,-0.7242674231529236,0.13602830469608307,90.12873077392578,2.168614387512207,1.393485188484192,0.8593418002128601,24168,,,,,,,,,,
405,,,,,,,24169,0.0773564875125885,0.24407343566417694,0.06051107496023178,,,,,,,
406,,,,,,,24171,,,,-0.003623842727392912,-0.005312622990459204,0.7078800797462463,0.7063019275665283,,,
407,,,,,,,24173,,,,,,,,0.09143669903278351,0.016416817903518677,-0.005780704319477081
408,-0.5452998876571655,0.2898835837841034,90.11046600341797,2.174286365509033,1.4200114011764526,0.8580864071846008,24268,,,,,,,,,,
409,,,,,,,24269,0.06477858871221542,0.24259106814861298,0.06958562880754471,,,,,,,
410,,,,,,,24271,,,,-0.0014788764528930187,-0.004856141284108162,0.7077807784080505,0.7064124345779419,,,
411,,,,,,,24273,,,,,,,,-0.034270185977220535,0.09773728251457214,0.0019960703793913126
412,-0.3213862180709839,0.043714430183172226,90.08016967773438,2.1788134574890137,1.4530155658721924,0.8570132851600647,24368,,,,,,,,,,
413,,,,,,,24369,0.05541098490357399,0.24981404840946198,0.07762473076581955,,,,,,,
414,,,,,,,24371,,,,-0.0017118403920903802,-0.002254108665511012,0.7075970768928528,0.7066090703010559,,,
415,,,,,,,24373,,,,,,,,0.0066652558743953705,-0.01792425662279129,-0.017133068293333054
416,-0.03054671548306942,0.5091677904129028,89.97978973388672,2.188422918319702,1.489210605621338,0.8579851984977722,24468,,,,,,,,,,
417,,,,,,,24469,0.05707787349820137,0.26062384247779846,0.08370405435562134,,,,,,,
418,,,,,,,24471,,,,0.0029320502653717995,-0.0033863091375678778,0.7069729566574097,0.7072250247001648,,,
419,,,,,,,24473,,,,,,,,0.05304555222392082,0.01384106744080782,-0.029708903282880783
420,-0.11156442016363144,1.3465826511383057,89.8510513305664,2.197709321975708,1.5249406099319458,0.863564670085907,24568,,,,,,,,,,
421,,,,,,,24569,0.058008719235658646,0.25847968459129333,0.08490040153265,,,,,,,
422,,,,,,,24571,,,,0.0075035723857581615,-0.008991834707558155,0.7061306238174438,0.7079833745956421,,,
423,,,,,,,24573,,,,,,,,0.010638870298862457,-0.015089625492691994,-0.034330807626247406
424,-0.4887191653251648,0.6479084491729736,89.69788360595703,2.209747076034546,1.5597450733184814,0.8677150011062622,24668,,,,,,,,,,
425,,,,,,,24669,0.05992492288351059,0.2515852749347687,0.08861424773931503,,,,,,,
426,,,,,,,24671,,,,0.0008431304595433176,-0.007064168807119131,0.7052060961723328,0.7089653015136719,,,
427,,,,,,,24673,,,,,,,,0.07553625851869583,-0.058851465582847595,0.00045765546383336186
428,-0.7279133796691895,1.4839844703674316,89.67330932617188,2.2285616397857666,1.5899285078048706,0.8706696629524231,24768,,,,,,,,,,
429,,,,,,,24769,0.06599915772676468,0.2413182109594345,0.0629623681306839,,,,,,,
430,,,,,,,24771,,,,0.004521076567471027,-0.0136482622474432,0.7049586772918701,0.7091012597084045,,,
431,,,,,,,24773,,,,,,,,-0.023295670747756958,-0.12763749063014984,-0.005917805712670088
432,-0.9685080647468567,1.6574411392211914,89.67581176757812,2.239607810974121,1.6230592727661133,0.8747742772102356,24868,,,,,,,,,,
433,,,,,,,24869,0.05485738441348076,0.22871318459510803,0.05854485556483269,,,,,,,
434,,,,,,,24871,,,,0.004092157352715731,-0.016269858926534653,0.7049203515052795,0.7090865969657898,,,
435,,,,,,,24873,,,,,,,,0.0655398815870285,-0.02745480090379715,-0.002612127922475338
436,-1.6853137016296387,0.8184815049171448,89.63290405273438,2.247253179550171,1.6517715454101562,0.8796107769012451,24968,,,,,,,,,,
437,,,,,,,24969,0.03685172274708748,0.21274979412555695,0.057405222207307816,,,,,,,
438,,,,,,,24971,,,,-0.005426687188446522,-0.015508838929235935,0.7046682834625244,0.7093451619148254,,,
439,,,,,,,24973,,,,,,,,-0.07253962010145187,-0.013313745148479939,-0.000635227479506284
440,-1.5804603099822998,1.4424337148666382,89.6906967163086,2.2551615238189697,1.6806228160858154,0.8834566473960876,25068,,,,,,,,,,
441,,,,,,,25069,0.014967236667871475,0.20624274015426636,0.06244311481714249,,,,,,,
442,,,,,,,25071,,,,-0.0010215315269306302,-0.01870914362370968,0.7049527168273926,0.7090052962303162,,,
443,,,,,,,25073,,,,,,,,-0.034471169114112854,-0.032420746982097626,-0.0040888115763664246
444,-1.3569297790527344,1.1130151748657227,89.72827911376953,2.2566912174224854,1.7079904079437256,0.8891894221305847,25168,,,,,,,,,,
445,,,,,,,25169,-0.009821835905313492,0.19497402012348175,0.05486694350838661,,,,,,,
446,,,,,,,25171,,,,-0.00156666268594563,-0.015306971035897732,0.7052633166313171,0.708777129650116,,,
447,,,,,,,25173,,,,,,,,0.15358443558216095,0.04319631680846214,0.017915306612849236
448,-0.9749957919120789,1.808537244796753,89.77819061279297,2.2593038082122803,1.7317979335784912,0.8907079696655273,25268,,,,,,,,,,
449,,,,,,,25269,-0.02570231258869171,0.17591501772403717,0.04882078245282173,,,,,,,
450,,,,,,,25271,,,,0.0050820233300328255,-0.017263075336813927,0.7055278420448303,0.7084522843360901,,,
451,,,,,,,25273,,,,,,,,-0.19841445982456207,0.04093452915549278,0.009539530612528324
452,-1.1704490184783936,0.6333944797515869,89.82197570800781,2.2603843212127686,1.7569315433502197,0.8937384486198425,25368,,,,,,,,,,
453,,,,,,,25369,-0.038387712091207504,0.16625991463661194,0.03661426529288292,,,,,,,
454,,,,,,,25371,,,,-0.0033646479714661837,-0.011218938045203686,0.7059198021888733,0.7081934809684753,,,
455,,,,,,,25373,,,,,,,,0.028081826865673065,0.07703381776809692,0.018013739958405495
456,-0.719697892665863,0.7055997252464294,89.93753051757812,2.260223627090454,1.776893973350525,0.8950578570365906,25468,,,,,,,,,,
457,,,,,,,25469,-0.05010939761996269,0.15955610573291779,0.04328546300530434,,,,,,,
458,,,,,,,25471,,,,-0.00012599275214597583,-0.008891195990145206,0.706666886806488,0.7074891328811646,,,
459,,,,,,,25473,,,,,,,,0.04665481671690941,-0.011072438210248947,-0.01883785054087639
460,-0.7284154295921326,0.7007040977478027,89.90518188476562,2.2570085525512695,1.795985221862793,0.8981755375862122,25568,,,,,,,,,,
461,,,,,,,25569,-0.06007367745041847,0.15122322738170624,0.05225975438952446,,,,,,,
462,,,,,,,25571,,,,-0.00021060935978312045,-0.008910003118216991,0.706466794013977,0.7076886892318726,,,
463,,,,,,,25573,,,,,,,,-0.0074244774878025055,0.04654490202665329,-0.011736584827303886
464,-0.3307596743106842,0.9053030014038086,89.9532470703125,2.258249282836914,1.8064186573028564,0.8965374827384949,25668,,,,,,,,,,
465,,,,,,,25669,-0.06135416403412819,0.13353388011455536,0.03834777697920799,,,,,,,
466,,,,,,,25671,,,,0.0035079678054898977,-0.00772579200565815,0.7067773938179016,0.7073836922645569,,,
467,,,,,,,25673,,,,,,,,-0.0033046482130885124,0.017123505473136902,0.01734091341495514
468,-0.7745088338851929,-0.25458502769470215,89.97197723388672,2.253704786300659,1.8204803466796875,0.8973016738891602,25768,,,,,,,,,,
469,,,,,,,25769,-0.0673818439245224,0.1257779896259308,0.0348326750099659,,,,,,,
470,,,,,,,25771,,,,-0.006379704922437668,-0.0032894443720579147,0.7069264650344849,0.7072492241859436,,,
471,,,,,,,25773,,,,,,,,-0.1388520747423172,-0.021896278485655785,0.006833231076598167
472,-0.7477946281433105,-0.40055495500564575,90.05157470703125,2.2509825229644775,1.8354501724243164,0.8970481157302856,25868,,,,,,,,,,
473,,,,,,,25869,-0.07568317651748657,0.1355481743812561,0.040194444358348846,,,,,,,
474,,,,,,,25871,,,,-0.007112543564289808,-0.0022252320777624846,0.7074213624000549,0.7067513465881348,,,
475,,,,,,,25873,,,,,,,,0.0489075668156147,0.048437926918268204,0.006548388861119747
476,-0.6868168711662292,-0.38360607624053955,90.03205871582031,2.247922897338867,1.850685954093933,0.8950164318084717,25968,,,,,,,,,,
477,,,,,,,25969,-0.08176946640014648,0.14334215223789215,0.04388051852583885,,,,,,,
478,,,,,,,25971,,,,-0.006634856108576059,-0.0019604517146945,0.707301676273346,0.7068765163421631,,,
479,,,,,,,25973,,,,,,,,0.008403763175010681,-0.050551265478134155,0.007594194263219833
480,-1.1392574310302734,-1.2315456867218018,89.979736328125,2.237450361251831,1.8603510856628418,0.8888921737670898,26068,,,,,,,,,,
481,,,,,,,26069,-0.09781531989574432,0.14798857271671295,0.04338537156581879,,,,,,,
482,,,,,,,26071,,,,-0.014659497886896133,0.0004810700484085828,0.7069809436798096,0.7070789933204651,,,
483,,,,,,,26073,,,,,,,,-0.08917548507452011,0.00898786447942257,0.01175110787153244
484,-0.7692583203315735,-0.8598197102546692,89.99527740478516,2.2096107006073,1.875540852546692,0.8872140049934387,26168,,,,,,,,,,
485,,,,,,,26169,-0.1325354278087616,0.16778649389743805,0.04368400201201439,,,,,,,
486,,,,,,,26171,,,,-0.010080430656671524,0.00047486802213825285,0.7070772051811218,0.7070629000663757,,,
487,,,,,,,26173,,,,,,,,0.009671778418123722,0.024007238447666168,0.007824781350791454
488,-0.35924044251441956,-0.8579884767532349,90.01691436767578,2.1905412673950195,1.891036868095398,0.8826550841331482,26268,,,,,,,,,,
489,,,,,,,26269,-0.14862747490406036,0.1810472458600998,0.03845233842730522,,,,,,,
490,,,,,,,26271,,,,-0.007540789432823658,0.002987392945215106,0.7072049975395203,0.7069606781005859,,,
491,,,,,,,26273,,,,,,,,0.12674516439437866,0.1634112298488617,-0.00362800108268857
492,0.46537235379219055,-0.042703356593847275,90.05757904052734,2.1790294647216797,1.9226287603378296,0.8928849697113037,26368,,,,,,,,,,
493,,,,,,,26369,-0.14537273347377777,0.20647791028022766,0.05454598739743233,,,,,,,
494,,,,,,,26371,,,,0.0025764373131096363,0.003042859025299549,0.7074565291404724,0.7067441940307617,,,
495,,,,,,,26373,,,,,,,,0.21357111632823944,0.16937175393104553,-0.005644730292260647
496,0.5029538869857788,-0.388860821723938,90.02342987060547,2.166189432144165,1.9526113271713257,0.9024096131324768,26468,,,,,,,,,,
497,,,,,,,26469,-0.13302163779735565,0.2171442061662674,0.06427392363548279,,,,,,,
498,,,,,,,26471,,,,0.0006772971828468144,0.005421799141913652,0.7072317600250244,0.7069592475891113,,,
499,,,,,,,26473,,,,,,,,-0.048304907977581024,-0.039547957479953766,-0.011652341112494469
500,0.4922889471054077,0.13229411840438843,89.97698974609375,2.150505304336548,1.9874237775802612,0.9172715544700623,26568,,,,,,,,,,
501,,,,,,,26569,-0.1278093010187149,0.2381969690322876,0.07366782426834106,,,,,,,
502,,,,,,,26571,,,,0.0038292622193694115,0.002138173906132579,0.7069636583328247,0.7072348594665527,,,
503,,,,,,,26573,,,,,,,,0.17751845717430115,-0.028985267505049706,-0.015586338005959988
504,0.5699576735496521,1.0412812232971191,89.97496032714844,2.1409239768981934,2.014159917831421,0.9248114824295044,26668,,,,,,,,,,
505,,,,,,,26669,-0.11697722971439362,0.23371835052967072,0.06501150131225586,,,,,,,
506,,,,,,,26671,,,,0.00991822499781847,-0.002987705636769533,0.7069486975669861,0.7071875929832458,,,
507,,,,,,,26673,,,,,,,,0.1946651190519333,0.0728485956788063,-0.006670801900327206
508,-0.07353829592466354,0.8362621665000916,89.9871826171875,2.1372487545013428,2.036250114440918,0.9313820004463196,26768,,,,,,,,,,
509,,,,,,,26769,-0.10118547081947327,0.21379484236240387,0.05342564731836319,,,,,,,
510,,,,,,,26771,,,,0.00468049431219697,-0.005699497181922197,0.7070078253746033,0.7071657776832581,,,
511,,,,,,,26773,,,,,,,,-0.10125121474266052,-0.20139534771442413,-0.021628445014357567
512,-0.4611852467060089,0.6596798300743103,89.951171875,2.1248018741607666,2.045518159866333,0.9251794219017029,26868,,,,,,,,,,
513,,,,,,,26869,-0.10833440721035004,0.18741831183433533,0.023459604009985924,,,,,,,
514,,,,,,,26871,,,,0.0011979338014498353,-0.006997751072049141,0.7067734003067017,0.7074029445648193,,,
515,,,,,,,26873,,,,,,,,-0.08875520527362823,-0.061994343996047974,0.006736822426319122
516,-0.573606014251709,0.452139675617218,90.00830078125,2.1139533519744873,2.054462194442749,0.9163966178894043,26968,,,,,,,,,,
517,,,,,,,26969,-0.11759886145591736,0.1677626371383667,0.018388554453849792,,,,,,,
518,,,,,,,26971,,,,-0.000774598156567663,-0.006416270975023508,0.7071309685707092,0.707051694393158,,,
519,,,,,,,26973,,,,,,,,0.053677476942539215,0.023244015872478485,-0.003007172606885433
520,-0.5265354514122009,-0.08335664868354797,90.0156478881836,2.1034178733825684,2.0634469985961914,0.9108882546424866,27068,,,,,,,,,,
521,,,,,,,27069,-0.1253739893436432,0.1522657722234726,0.03001401387155056,,,,,,,
522,,,,,,,27071,,,,-0.0037871026434004307,-0.002818105276674032,0.707198441028595,0.7069979310035706,,,
523,,,,,,,27073,,,,,,,,-0.12325693666934967,0.07496531307697296,0.006864144001156092
524,-0.8054758310317993,-0.9266876578330994,90.02718353271484,2.0966670513153076,2.0635130405426025,0.9002764821052551,27168,,,,,,,,,,
525,,,,,,,27169,-0.12769392132759094,0.1399758905172348,0.02513681724667549,,,,,,,
526,,,,,,,27171,,,,-0.01071097981184721,0.0006677030469290912,0.707273542881012,0.7068570852279663,,,
527,,,,,,,27173,,,,,,,,-0.22378705441951752,-0.10210783779621124,-0.005500491708517075
528,-0.8952170014381409,-1.8223391771316528,89.95802307128906,2.083284378051758,2.0854685306549072,0.9079061150550842,27268,,,,,,,,,,
529,,,,,,,27269,-0.1435050666332245,0.17270366847515106,0.03207012265920639,,,,,,,
530,,,,,,,27271,,,,-0.01678638532757759,0.005653686355799437,0.7068235874176025,0.7071666717529297,,,
531,,,,,,,27273,,,,,,,,-0.11059477925300598,0.01889447681605816,-0.007885929197072983
532,-0.600716233253479,-1.4728626012802124,89.88610076904297,2.0598790645599365,2.110440969467163,0.9148845076560974,27368,,,,,,,,,,
533,,,,,,,27369,-0.16612118482589722,0.21223416924476624,0.05538371950387955,,,,,,,
534,,,,,,,27371,,,,-0.012809719890356064,0.0053204987198114395,0.7063822746276855,0.7076932191848755,,,
535,,,,,,,27373,,,,,,,,0.15731090307235718,0.10604117810726166,-0.01620844192802906
536,-0.10082737356424332,-0.8516928553581238,89.8189697265625,2.0358874797821045,2.1314969062805176,0.9141879677772522,27468,,,,,,,,,,
537,,,,,,,27469,-0.1793937087059021,0.23098430037498474,0.04286538437008858,,,,,,,
538,,,,,,,27471,,,,-0.005888181738555431,0.00457574101164937,0.7059730887413025,0.7081980109214783,,,
539,,,,,,,27473,,,,,,,,0.1814115047454834,0.15861168503761292,-0.0047707161866128445
540,0.2770949602127075,-0.5065059661865234,89.8485336303711,2.017498254776001,2.1615090370178223,0.9157221913337708,27568,,,,,,,,,,
541,,,,,,,27569,-0.17636749148368835,0.2486327588558197,0.04576684162020683,,,,,,,
542,,,,,,,27571,,,,-0.0014238829025998712,0.004780584014952183,0.7061547040939331,0.7080385684967041,,,
543,,,,,,,27573,,,,,,,,-0.03875868767499924,-0.08374262601137161,-0.0037399432621896267
544,0.5040121078491211,0.39499273896217346,89.87513732910156,2.009793281555176,2.197258949279785,0.9254963397979736,27668,,,,,,,,,,
545,,,,,,,27669,-0.16201335191726685,0.2673388719558716,0.050374846905469894,,,,,,,
546,,,,,,,27671,,,,0.005527756176888943,0.0005859197699464858,0.7063358426094055,0.7078536152839661,,,
547,,,,,,,27673,,,,,,,,0.20485363900661469,0.05221979320049286,0.0019097275799140334
548,0.3931291997432709,0.8622939586639404,89.878662109375,1.998551368713379,2.2299892902374268,0.9344233870506287,27768,,,,,,,,,,
549,,,,,,,27769,-0.14905434846878052,0.26493287086486816,0.0378110334277153,,,,,,,
550,,,,,,,27771,,,,0.007743581663817167,-0.002903261687606573,0.706351101398468,0.7078119516372681,,,
551,,,,,,,27773,,,,,,,,0.22361396253108978,-0.02600146271288395,-0.00754230422899127
552,0.30922096967697144,1.8193622827529907,89.88795471191406,1.9919313192367554,2.257432699203491,0.9378847479820251,27868,,,,,,,,,,
553,,,,,,,27869,-0.13345301151275635,0.24262471497058868,0.031194761395454407,,,,,,,
554,,,,,,,27871,,,,0.013103047385811806,-0.009420201182365417,0.7063537240028381,0.7076736092567444,,,
555,,,,,,,27873,,,,,,,,0.06097930669784546,-0.040268559008836746,0.010066364891827106
556,-0.33275607228279114,1.620315432548523,89.94095611572266,1.9893397092819214,2.27738356590271,0.9432705640792847,27968,,,,,,,,,,
557,,,,,,,27969,-0.12115171551704407,0.2075445055961609,0.03491438180208206,,,,,,,
558,,,,,,,27971,,,,0.007938739843666553,-0.012055277824401855,0.7066389918327332,0.707425594329834,,,
559,,,,,,,27973,,,,,,,,-0.24116411805152893,-0.3219429552555084,-0.010811081156134605
560,-1.2529963254928589,0.6150320768356323,89.85102844238281,1.9796632528305054,2.2947323322296143,0.9465258717536926,28068,,,,,,,,,,
561,,,,,,,28069,-0.13378122448921204,0.18597616255283356,0.04211056977510452,,,,,,,
562,,,,,,,28071,,,,-0.003951615188270807,-0.011521346867084503,0.7060922980308533,0.7080135941505432,,,
563,,,,,,,28073,,,,,,,,-0.08949975669384003,-0.0336911641061306,-0.006121584679931402
564,-1.2954515218734741,0.25804683566093445,89.79481506347656,1.9628559350967407,2.306461811065674,0.9439597129821777,28168,,,,,,,,,,
565,,,,,,,28169,-0.1566174030303955,0.16948586702346802,0.025838613510131836,,,,,,,
566,,,,,,,28171,,,,-0.006418539676815271,-0.009574349969625473,0.7057739496231079,0.7083419561386108,,,
567,,,,,,,28173,,,,,,,,-0.03033262863755226,0.07297588139772415,-0.0038765950594097376
568,-0.9120848178863525,-0.21254268288612366,89.7662582397461,1.9491640329360962,2.3137576580047607,0.9404063820838928,28268,,,,,,,,,,
569,,,,,,,28269,-0.17327609658241272,0.15690985321998596,0.01934889517724514,,,,,,,
570,,,,,,,28271,,,,-0.0069483807310462,-0.0043024467304348946,0.705649197101593,0.7085128426551819,,,
571,,,,,,,28273,,,,,,,,0.03437194228172302,0.15912742912769318,0.0027906226459890604
572,-0.6249174475669861,-0.7368446588516235,89.7405014038086,1.9222447872161865,2.3194515705108643,0.9354618787765503,28368,,,,,,,,,,
573,,,,,,,28369,-0.19203007221221924,0.14712396264076233,0.02911170944571495,,,,,,,
574,,,,,,,28371,,,,-0.008401202969253063,0.0007097013876773417,0.7055027484893799,0.708655595779419,,,
575,,,,,,,28373,,,,,,,,-0.5127593874931335,-0.2564246654510498,-0.006871633697301149
576,-0.8497112393379211,-2.0387957096099854,89.6617431640625,1.8847630023956299,2.3201732635498047,0.9254180192947388,28468,,,,,,,,,,
577,,,,,,,28469,-0.2272300124168396,0.157370463013649,0.0228665042668581,,,,,,,
578,,,,,,,28471,,,,-0.017800411209464073,0.007389910984784365,0.704978346824646,0.7089654207229614,,,
579,,,,,,,28473,,,,,,,,0.06256513297557831,0.3369453549385071,-0.006823287345468998
580,0.21491453051567078,-2.2739408016204834,89.62975311279297,1.8604791164398193,2.3364109992980957,0.9255648851394653,28568,,,,,,,,,,
581,,,,,,,28569,-0.2314356118440628,0.19080978631973267,0.018762879073619843,,,,,,,
582,,,,,,,28571,,,,-0.012655221857130527,0.015397680923342705,0.7046513557434082,0.7092723250389099,,,
583,,,,,,,28573,,,,,,,,-0.007074607070535421,0.15354777872562408,0.005639971233904362
584,1.0911760330200195,-1.5371752977371216,89.69075012207031,1.8414620161056519,2.353628396987915,0.9222416877746582,28668,,,,,,,,,,
585,,,,,,,28669,-0.21644873917102814,0.2220793068408966,0.025507327169179916,,,,,,,
586,,,,,,,28671,,,,-0.002708351006731391,0.016224639490246773,0.7050093412399292,0.7090058326721191,,,
587,,,,,,,28673,,,,,,,,0.16237233579158783,0.15615259110927582,0.027832554653286934
588,1.0531389713287354,-1.0427919626235962,89.8104476928711,1.8289083242416382,2.3827946186065674,0.9326077699661255,28768,,,,,,,,,,
589,,,,,,,28769,-0.18466705083847046,0.24926389753818512,0.03877878934144974,,,,,,,
